stop_id,stop_code,stop_name,stop_desc,stop_lat,stop_lon,zone_id,stop_url,location_type,parent_station,stop_timezone,wheelchair_accesible
2,GRPK0,Broadway & Sheridan Ave,,40.647356,-73.689531,,,,,,
3,GBRR0,Dubois Ave Opp Gibson Blvd. LIRR,,40.650595,-73.701527,,,,,,
4,GRAU0,Green Acre Rd & Sidney Pl,,40.662021,-73.714631,,,,,,
5,GRAC0,Green Acres Macys,,40.661828,-73.722585,,,,,,
6,VSRR0,S Franklin Av& W Hawthorne Av LIRR,,40.661166,-73.703052,,,,,,
7,CLMK0,Central Ave + Merrick Rd,,40.667715,-73.708016,,,,,,
8,HPEL1,Hempstead Tpke & Elmont Rd,,40.708206,-73.709819,,,,,,
9,JAMT0,Jamaica Bus Terminal,,40.707769,-73.795782,,,,,,
11,J1790,Hillside Ave & 178 St. (179 Subway),,40.712491,-73.78443,,,,,,
12,CCIP0,Hempstead Ave + 225th St. (CIP),,40.711608,-73.729348,,,,,,
14,HPMM0,Hempstead Tpke & Meacham Ave,,40.708058,-73.690578,,,,,,
15,FLDB0,N Fletcher Ave + Dutch Broadway,,40.686832,-73.702289,,,,,,
20,FKLNE,Hempstead Tpke & Franklin Ave,,40.707414,-73.676071,,,,,,
22,FREE0,Freeport LIRR Station,,40.657577,-73.580766,,,,,,
23,ATGR0,Atlantic Ave. & Grand Ave.,,40.638483,-73.612862,,,,,,
24,RVCP0,Rockvl Ctr: Merrick + Park Ave,,40.656192,-73.645286,,,,,,
25,LY5C0,Merrick Rd + Hempstead Ave 5 Corner,,40.657116,-73.67176,,,,,,
26,VSRW0,Merrick Rd + Rockaway Ave,,40.664813,-73.698047,,,,,,
27,CTYL0,Merrick Rd + Ocean Ave City Line,,40.6742,-73.727343,,,,,,
28,ARCH0,Archer Ave + Parsons Blvd,,40.70248,-73.799953,,,,,,
29,RCRRW,Rockville Centre LIRR,,40.657919,-73.646234,,,,,,
32,DMOT0,Demott Ave + Long Beach Rd,,40.67075,-73.6274,,,,,,
33,MKMK0,Merrick Rd + Merrick Ave,,40.656598,-73.549021,,,,,,
34,BMMC0,Merrick Rd + Centre Ave,,40.662945,-73.529458,,,,,,
35,MKWN0,Merrick Rd + Wantagh Ave,,40.664409,-73.510912,,,,,,
36,SEAF0,Merrick Rd + Jackson Ave,,40.666102,-73.486629,,,,,,
37,BARH0,Merrick Rd + Park Blvd,,40.666431,-73.456681,,,,,,
38,SUNM0,SUNRISE MALL @ Massapequa Pk,,40.682004,-73.432455,,,,,,
43,BYRR0,Babylon LIRR Station,,40.700406,-73.324398,,,,,,
44,GNRRS,Great Neck LIRR at S. Station Plaza,,40.787297,-73.725326,,,,,,
45,NSHH0,North Shore Univ Hospital,,40.778622,-73.702823,,,,,,
47,LIJH0,L I Jewish Medical Center,,40.755646,-73.704287,,,,,,
48,NHPK0,Hillside Ave + New Hyde Park Rd,,40.747985,-73.685405,,,,,,
49,NHPJ0,Jericho Tpke + New Hyde Park Rd,,40.733516,-73.680137,,,,,,
50,VSWH0,Franklin Ave + Wheeler Ave,,40.67709,-73.683582,,,,,,
51,LYRR1,Lynbrook LIRR Station,,40.65565,-73.673557,,,,,,
54,FRWM0,B 21ST ST. & MOTT AVE.,,40.603621,-73.754121,,,,,,
55,LWWH0,Central Ave + Washington Ave,,40.619452,-73.726821,,,,,,
56,WWIP0,West Broadway + Irving Place,,40.634851,-73.711796,,,,,,
57,WDIP0,Broadway + Irving Place,,40.630456,-73.707872,,,,,,
58,HWTB0,Broadway + West Broadway,,40.639055,-73.700624,,,,,,
59,MVRR0,Malverne LIRR Station,,40.674627,-73.669979,,,,,,
60,HEMP0,Hempstead Transit Center,,40.711097,-73.624752,,,,,,
61,LBRR0,Long Beach LIRR Station,,40.58894,-73.665466,,,,,,
62,ABBK0,ATL BCH W BEECH ST &  BROOKLINE AVE,,40.586074,-73.701965,,,,,,
63,ABAYO,ATL BEACH PARK ST. ALBANY BLVD,,40.58965,-73.736166,,,,,,
65,OCND0,Long Beach Rd + Davison Ave,,40.641657,-73.640473,,,,,,
67,BRLB0,Baldwin Rd + Long Beach Rd,,40.696398,-73.615631,,,,,,
68,DMTG0,Grand Ave + DeMott Ave,,40.674968,-73.612459,,,,,,
69,MKGR0,Grand Ave + Merrick Road,,40.650922,-73.612663,,,,,,
70,ATGR2,Atlantic Ave + Verity Ln,,40.639185,-73.610246,,,,,,
71,GVMK0,Guy Lombardo Ave + Merrick Rd,,40.653504,-73.584353,,,,,,
72,GVAT0,Guy Lombardo + Atlantic Ave,,40.64584,-73.583183,,,,,,
74,FTWT0,Front St + Woodcleft Ave,,40.639912,-73.583223,,,,,,
76,FTLB0,S Long Beach Rd + Front St,,40.639651,-73.586893,,,,,,
77,CSNO0,S Bayview Ave + Casino St,,40.639885,-73.593274,,,,,,
78,ATBY0,S Bayview Ave + Atlantic Ave,,40.644764,-73.592486,,,,,,
79,MKBY0,Merrick Rd + South Bayview Ave,,40.652043,-73.593725,,,,,,
81,WHMP0,Hempstead Tpke & Westminster,,40.704972,-73.643535,,,,,,
82,IPRR0,Island Park LIRR,,40.600166,-73.655837,,,,,,
83,OCMT0,Long Beach Rd + Mott St,,40.625707,-73.639618,,,,,,
84,LKVE0,Woodfield Rd + Eagle AveLakeview LI,,40.686331,-73.652315,,,,,,
85,WAOC0,Old Country Rd + Washington Ave,,40.739979,-73.633329,,,,,,
87,RVTF0,Roosevelt Field Terminal,,40.735216,-73.61013,,,,,,
89,WOAK2,Westbury Blvd + Oak St,,40.722922,-73.606559,,,,,,
90,SSPW0,Molloy College,,40.686166,-73.624943,,,,,,
93,NAHA0,Nassau Rd + Harold Ave,,40.694572,-73.604981,,,,,,
94,RVTM0,Debevoise Ave + Nassau Rd,,40.678355,-73.589015,,,,,,
95,RVBT0,Babylon Tpke + Nassau RD,,40.67856,-73.589053,,,,,,
98,BMRR2,Bellmore LIRR Station,,40.668706,-73.530892,,,,,,
99,CMPM0,Camp Ave + Merrick Ave,,40.676768,-73.557661,,,,,,
100,RVPA0,Washington Ave + Park Ave,,40.680051,-73.583913,,,,,,
101,FTUN0,Uniondale Ave + Front St,,40.709508,-73.592284,,,,,,
104,FTMK0,FRONT ST. & MERRICK AVE.,,40.714092,-73.573183,,,,,,
105,NCMC0,Nassau Univ Med Ctr/3rd,,40.724899,-73.557013,,,,,,
106,NJNR2,N Jerusalem Rd + Newbridge Rd,,40.705774,-73.544368,,,,,,
108,LTNN0,Newbridge Rd & Lev Pky (Flamingo Rd,,40.743241,-73.535329,,,,,,
109,CAOC0,Carman Ave + Old Country Rd,,40.755875,-73.553271,,,,,,
110,HKRR0,Hicksville LIRR Station,,40.767201,-73.527358,,,,,,
111,BWYM0,Hicksville Bdway Mall (Sears),,40.773923,-73.527822,,,,,,
117,HEMK0,Hewlett Ave + Merrick Rd,,40.658445,-73.547332,,,,,,
118,MKRR0,Merrick LIRR Station,,40.663633,-73.550933,,,,,,
119,MKJU0,MERRICK AVE. & JERUSALEM AVE.,,40.691453,-73.563546,,,,,,
120,HPGL0,Glenn Curtiss Blvd + Hempstead Tpk,,40.719917,-73.587753,,,,,,
122,AYRR0,AMITYVILLE RAILROAD STATION,,40.680158,-73.419517,,,,,,
123,SUNQW,SUNRISE HWY + UNQUA RD,,40.678594,-73.439476,,,,,,
124,BSUN0,SUNRISE HWY & BROADWAY,,40.676214,-73.47162,,,,,,
125,BDJU0,JERUSALEM AVE &  BROADWAY,,40.692474,-73.465556,,,,,,
126,WGJU0,Jerusalem Ave & Washington Ave,,40.691116,-73.48577,,,,,,
127,WNJU0,Jerusalem Ave & Wantagh Ave.,,40.693675,-73.507603,,,,,,
128,BMJU0,JERUSALEM AVE &  BELLMORE RD,,40.69155,-73.533561,,,,,,
129,UNJU0,JERUSALEM AVE & UNIONDALE AVE,,40.700547,-73.593225,,,,,,
130,BOMR0,Bayview Ave + Old Mill Rd,,40.794541,-73.745076,,,,,,
131,AMNR0,Arrandale Ave + Middle Neck Rd,,40.806052,-73.735339,,,,,,
132,ESRK0,East Shore Rd + Kennilworth Terrac,,40.820162,-73.733878,,,,,,
133,SFRD0,Station Rd + Fairview Rd,,40.805855,-73.720099,,,,,,
134,KPRD0,End of Kings Point Rd,,40.831905,-73.747501,,,,,,
135,ACAD0,Kings Point Rd + Kings Point Acade,,40.812599,-73.758245,,,,,,
136,ADMN0,Middle Neck Rd + Arrandale Ave,,40.80599,-73.735255,,,,,,
138,HFTC2,Hofstra Hempstead Tkp + California,,40.715543,-73.599122,,,,,,
139,HPDV0,Hempstead Tpke + Division Ave,,40.724551,-73.528217,,,,,,
140,HPWN0,Hempstead Tpke + Wantagh Ave,,40.725473,-73.497652,,,,,,
141,HPST0,STEWART AVE + HEMPSTEAD TPKE,,40.725488,-73.482706,,,,,,
142,MAIN0,Main St + Route 109,,40.727343,-73.4444,,,,,,
143,CKNM0,Conklin St + Main St,,40.732819,-73.445755,,,,,,
144,C1100,Conklin St + Route 110,,40.738314,-73.423409,,,,,,
147,R1090,Rte 109 + Straight Path,,40.714333,-73.381448,,,,,,
148,WNRR0,Wantagh LIRR,,40.672591,-73.510253,,,,,,
149,WNJR0,Old Jerusalem Rd + Wantagh Ave,,40.702399,-73.5056,,,,,,
150,GRPE0,Gardiners Ave + Prairie Lane,,40.712051,-73.515194,,,,,,
152,HPJA0,Hempstead Tpke + Jerusalem Ave,,40.726091,-73.514406,,,,,,
154,CFWJ0,Cornflower Rd + Jerusalem Ave,,40.733406,-73.514098,,,,,,
155,FCOC0,Old Country Rd at Family Court,,40.755748,-73.553735,,,,,,
156,SOBO0,Old Country Rd + S Oyster Bay Rd,,40.769549,-73.501194,,,,,,
157,MTHO0,Old Country Rd + Manetto Hill Rd,,40.776376,-73.466643,,,,,,
158,NWOC0,Old Country Rd + Newtown Rd,,40.780124,-73.451631,,,,,,
159,MTHW0,Manetto Hill Rd + Woodbury Rd,,40.800233,-73.483274,,,,,,
160,JROP0,Jericho Tpke + Plainview Rd,,40.819557,-73.452685,,,,,,
162,BPRR0,BETHPAGE LIRR STATION,,40.74152,-73.481785,,,,,,
163,HPHK0,HICKSVILLE RD + HEMPSTEAD TPKE,,40.725051,-73.488457,,,,,,
164,HKBD0,HICKSVILLE RD + BOUNDARY,,40.717002,-73.483533,,,,,,
166,BDBW0,BOUNDARY AVE + BROADWAY,,40.71726,-73.461536,,,,,,
167,MARR0,Massapequa LIRR Station,,40.676477,-73.471498,,,,,,
190,MRCY0,Mercy Medical,,40.686167,-73.634345,,,,,,
191,POST0,LIU Post,,40.819989,-73.599276,,,,,,
194,GVLE0,Northern Blvd + Glen Cove Rd,,40.809471,-73.628169,,,,,,
195,GLEN0,Pratt Blvd + Bridge St,,40.86394,-73.631891,,,,,,
196,GWLG0,Shore Rd + Scudders Lane,,40.823783,-73.64572,,,,,,
197,CTRN0,Roslyn Clock Tower,,40.800186,-73.651164,,,,,,
198,PLDM0,Northern Blvd & Plandome Rd,,40.792668,-73.698547,,,,,,
199,LVGN0,Northern Bvd + Middle Neck/Leonards,,40.781854,-73.717089,,,,,,
200,CLGN0,Northern Blvd + Glenwood St Citylin,,40.772629,-73.733864,,,,,,
204,J1820,Hillside Ave + 182nd St,,40.713255,-73.781038,,,,,,
205,CHRY0,Hillside Ave + Cherry Lane,,40.739287,-73.699984,,,,,,
206,MRCS0,Hillside Ave + Marcus Ave,,40.751451,-73.673393,,,,,,
207,WILSE,Willis Ave. @ Hillside Ave,,40.75653,-73.644999,,,,,,
208,RSRDE,Hillside Ave + Roslyn Rd,,40.758302,-73.634985,,,,,,
209,JYCT0,JERICHO TPKE + JAY CT,,40.755917,-73.622528,,,,,,
210,WEST0,Maple Ave + Post Ave,,40.755785,-73.587809,,,,,,
211,RSRR0,Roslyn LIRR Station,,40.792052,-73.643372,,,,,,
213,PWRR0,Port Washington LIRR Station,,40.830695,-73.68778,,,,,,
214,MNRH0,Orchard Beach Blvd + Park Lane,,40.838711,-73.716947,,,,,,
215,FPKT0,Jericho Tpke + Tyson Ave,,40.728363,-73.704972,,,,,,
216,GCNU0,Jericho Tpke + Nassau Blvd,,40.741138,-73.662906,,,,,,
217,EMGC0,Glenn Curtiss Blvd,,40.72004,-73.577942,,,,,,
218,WBOS0,Westbury Blvd + Oak St,,40.722799,-73.606176,,,,,,
219,GVRR0,Greenvale LIRR Station,,40.814535,-73.626511,,,,,,
220,GNHD0,Glen Cove Ave + Glen Head Rd,,40.832778,-73.629697,,,,,,
223,MVBR0,Ellison Ave. + Privado Road,,40.7451,-73.592244,,,,,,
225,GRPK1,Broadway & Sheridan Ave Grant Park,,40.647221,-73.689732,,,,,,
226,GBRR1,Dubois Ave & Gibson Blvd LIRR,,40.650551,-73.701443,,,,,,
227,GRAU1,Green Acres & Sidney Rd,,40.661708,-73.714701,,,,,,
228,GRAC1,Green Acres Macys,,40.66175,-73.722214,,,,,,
229,VSRR1,Valley Stream LIRR,,40.661523,-73.70308,,,,,,
230,CLMK1,Central Ave + Merrick Rd,,40.667661,-73.708135,,,,,,
232,JAMT1,Jamaica Bus Terminal,,40.707787,-73.795747,,,,,,
234,J1791,Hillside Ave  179th St Subway,,40.712784,-73.783276,,,,,,
235,CCIP1,Hempstead Ave & 225th St (CIP),,40.7116,-73.729241,,,,,,
237,HPMM1,Hempstead Tpke & Remsen St,,40.708148,-73.69046,,,,,,
243,FKLNW,Hempstead Tpke & New Hyde Park Rd,,40.707503,-73.676048,,,,,,
245,FREE1,Freeport LIRR Station,,40.657841,-73.581329,,,,,,
246,ATGR1,Atlantic Ave + Grand Ave,,40.63858,-73.613066,,,,,,
247,RVCP1,Merrick Rd + Park Ave,,40.656111,-73.645452,,,,,,
248,LY5C1,Merrick Rd + Hempstead Ave 5 Corner,,40.657037,-73.671509,,,,,,
249,VSRW1,Merrick Rd + Rockaway Ave,,40.664706,-73.697963,,,,,,
250,CTYL1,Merrick Rd + Ocean Ave Cityline,,40.6741,-73.727592,,,,,,
252,RCRRE,Rockville Centre LIRR,,40.657883,-73.646233,,,,,,
256,MKMK1,Merrick Rd + Merrick Ave,,40.656596,-73.549248,,,,,,
257,BMMC1,Merrick Rd + Centre Ave.,,40.662929,-73.528994,,,,,,
258,MKWN1,Merrick Rd + Wantagh Ave,,40.664517,-73.510734,,,,,,
259,SEAF1,Merrick Rd + Jackson Ave,,40.666181,-73.486892,,,,,,
260,BARH1,Merrick Rd + Park Blvd,,40.666519,-73.457016,,,,,,
261,SUNM1,SUNRISE MALL TERMINAL,,40.682104,-73.432405,,,,,,
266,BYRR1,Babylon LIRR Station,,40.70009,-73.325589,,,,,,
268,NSHH1,North Shore Univ Hospital,,40.778683,-73.703075,,,,,,
270,LIJH1,L I Jewish Medical Center,,40.755915,-73.704123,,,,,,
271,NHPK1,Hillside Ave + New Hyde Park Rd,,40.748235,-73.685408,,,,,,
272,NHPJ1,Jericho Tpke + New Hyde Park Rd,,40.733676,-73.680234,,,,,,
274,LYRR2,Lynbrook LIRR Station,,40.655614,-73.6737,,,,,,
276,FRWC1,B 20th St + Seagirt Blvd (Wavecrest),,40.595441,-73.754381,,,,,,
278,LWWH1,Central Ave + Washington Ave,,40.619783,-73.726717,,,,,,
279,WWIP1,West Broadway + Irving Place,,40.635011,-73.711905,,,,,,
280,WDIP1,Broadway + Irving Place,,40.630607,-73.708148,,,,,,
281,HWTB1,Broadway + West Broadway,,40.639171,-73.700768,,,,,,
282,MVRR1,Malverne LIRR Station,,40.674958,-73.669923,,,,,,
283,HEMP1,Hempstead Transit Center,,40.711107,-73.624657,,,,,,
284,LBRR1,Long Beach LIRR Station,,40.589056,-73.665503,,,,,,
285,ABBK1,ATL BCH W BEECH ST @ BROOKLINE AVE,,40.586005,-73.701619,,,,,,
286,ABAY1,ATL BEACH PARK ST ALBANY BLVD,,40.589497,-73.73639,,,,,,
288,OCND1,Long Beach Rd + Davison Ave,,40.641614,-73.640187,,,,,,
290,BRLB1,Baldwin Rd + Long Beach Rd,,40.696407,-73.615547,,,,,,
291,DMTG1,Grand Ave + DeMott Ave,,40.674986,-73.612364,,,,,,
292,MKGR1,Grand Ave + Merrick Rd,,40.65087,-73.612388,,,,,,
293,ATGR3,Atlantic Ave + Grand Ave,,40.638573,-73.612803,,,,,,
294,GVMK1,Guy Lombardo Ave + Merrick Rd,,40.65355,-73.584151,,,,,,
295,GVAT1,Guy Lombardo Ave + Atlantic Ave,,40.645851,-73.582969,,,,,,
297,FTWT1,Front St + Woodcleft Ave,,40.63994,-73.58302,,,,,,
299,FTLB1,S Long Beach Ave + Front St,,40.639579,-73.587059,,,,,,
300,CSNO1,S Bayview Ave + Casino St,,40.639795,-73.593356,,,,,,
301,ATBY1,S Bayview Ave + Atlantic Ave,,40.644923,-73.592714,,,,,,
302,MKBY1,Merrick Rd + South Bayview Ave,,40.651997,-73.593915,,,,,,
304,WHMPW,Hempstead Tpke & Westminster Rd,,40.705025,-73.643535,,,,,,
305,IPRR1,Island Park LIRR,,40.600299,-73.656005,,,,,,
306,OCMT1,Long Beach Rd + Mott St,,40.625669,-73.639796,,,,,,
307,LKVE1,Woodfield Rd + Eagle Ave,,40.68633,-73.652434,,,,,,
308,WAOC1,Old Country Rd + Washington Ave,,40.740139,-73.633438,,,,,,
310,RVTF1,Roosevelt Field Terminal,,40.735197,-73.610272,,,,,,
312,WOAK1,Westbury Blvd + Oak St,,40.722788,-73.606582,,,,,,
313,SSPW1,Molloy College,,40.68649,-73.624636,,,,,,
317,RVTM1,Nassau Rd & Babylon Tpke,,40.67831,-73.588967,,,,,,
318,RVBT1,Babylon Tpke + Nassau Rd (Mollineaux,,40.678587,-73.589005,,,,,,
320,NARG1,Nassau Rd + Argyle Ave,,40.694538,-73.604754,,,,,,
321,BMRR1,Bellmore LIRR Station,,40.669491,-73.527344,,,,,,
322,CMPM1,Camp Ave + Merrick Ave,,40.676661,-73.557695,,,,,,
323,RVPA1,Park Ave & Washington Ave,,40.68005,-73.584128,,,,,,
324,FTUN1,Uniondale Ave + Front St,,40.709533,-73.592583,,,,,,
326,BMMB1,Merrick Rd + Bedford Ave,,40.663695,-73.525791,,,,,,
327,FTMK1,Front St + Merrick Ave,,40.714091,-73.573231,,,,,,
328,NCMC1,Nassau Univ Medical Center,,40.725122,-73.557063,,,,,,
331,LTNN1,Newbridge Rd + Levittown Pkwy,,40.743186,-73.535567,,,,,,
332,CAOC1,Carman Ave + Old Country Rd,,40.755768,-73.553318,,,,,,
333,HKRR1,Hicksville LIRR Station,,40.767066,-73.527584,,,,,,
334,BWYM1,Broadway Mall - N Broadway,,40.773554,-73.528393,,,,,,
341,MKRR1,Merrick LIRR Station,,40.663822,-73.552318,,,,,,
342,MKJU1,MERRICK AVE & JERUSALEM AVE.,,40.691444,-73.563558,,,,,,
343,HPGL1,G Curtiss Bvd @Reckson Pl. N Entran,,40.718867,-73.587074,,,,,,
344,MKMR1,Merrick Ave + Merrick Rd,,40.656543,-73.549271,,,,,,
345,AYRR1,Amityville LIRR Station,,40.68005,-73.41954,,,,,,
346,SUNQE1,SUNRISE HWY & UNQUA RD,,40.678091,-73.442312,,,,,,
347,BSUN1,SUNRISE HWY &  BROADWAY,,40.675911,-73.471475,,,,,,
348,BDJU1,BROADWAY & JERUSALEM AVE,,40.692322,-73.465471,,,,,,
349,WGJU1,Jerusalem Ave & Washington Ave,,40.691037,-73.485376,,,,,,
350,WNJU1,Jerusalem Ave. & Wantagh Ave.,,40.693505,-73.507769,,,,,,
351,BMJU1,JERUSALEM AVE &  BELLMORE RD,,40.69139,-73.53356,,,,,,
352,UNJU1,JERUSALEM AVE & UNIONDALE AVE,,40.700298,-73.593448,,,,,,
353,BOMR1,Bayview Ave + Old Mill Rd,,40.794664,-73.74534,,,,,,
354,AMNR1,Arrandle Ave + Middle Neck Rd,,40.806213,-73.735341,,,,,,
355,ESRK1,E Shore Rd + Kenilworth Terrace,,40.820359,-73.73382,,,,,,
356,SFRD1,Station Rd + Fairview Ave,,40.805785,-73.719883,,,,,,
358,ACAD1,Kings Point Rd + Kings Point Acade,,40.812785,-73.757952,,,,,,
361,HFTC1,Hofstra Hempstead Tpke + California,,40.716014,-73.599533,,,,,,
362,HPDV1,Hempstead Tpke + Division Ave,,40.724874,-73.527981,,,,,,
363,HPWN1,Hempstead Tpke + Wantagh Ave,,40.725661,-73.497689,,,,,,
364,HPST1,STEWART AVE + HEMPSTEAD TPKE,,40.725738,-73.482732,,,,,,
365,MAIN1,Main St + Route 109,,40.727663,-73.444594,,,,,,
366,CKNM1,Conklin St + Main St,,40.732899,-73.445922,,,,,,
367,C1101,Conklin St + Route 110,,40.738582,-73.423447,,,,,,
368,SUNY1,State University at Farmingdale,,40.755915,-73.42743,,,,,,
369,NEWS1,Newsday Pinelawn Rd,,40.762331,-73.403684,,,,,,
370,R1091,Rte 109 + Straight Path,,40.714573,-73.381605,,,,,,
371,WNRR1,Wantagh LIRR,,40.672501,-73.510407,,,,,,
372,WNJR1,Old Jerusalem Rd + Wantagh Ave,,40.702167,-73.505694,,,,,,
373,GRPE1,Gardiners Ave + Prairie Lane,,40.711961,-73.5153,,,,,,
375,HPJA1,Hempstead Tpke + Jerusalem Ave,,40.726036,-73.514644,,,,,,
377,CFWJ1,Cornflower Rd + Jerusalem Ave,,40.733459,-73.514099,,,,,,
378,FCOC1,Old Country Rd OppFamily Court,,40.755964,-73.553499,,,,,,
379,SOBO1,Old Country Rd + S Oyster Bay,,40.769682,-73.501446,,,,,,
380,MTHO1,Old Country Rd + Manetto Hill Rd,,40.776596,-73.467218,,,,,,
381,NWOC1,Old Country Rd + Newtown Rd,,40.780064,-73.451631,,,,,,
382,MTHW1,Manetto Hill Rd + Woodbury Rd,,40.800197,-73.483309,,,,,,
383,JROP1,Jericho Tpke + Plainview Rd,,40.81962,-73.452519,,,,,,
384,WWSC1,S Huntington @  Walt Whitman Mall,,40.819184,-73.408455,,,,,,
385,BPRR1,BETHPAGE LIRR STATION,,40.741637,-73.481654,,,,,,
386,HPHK1,HICKSVILLE RD + HEMPSTEAD TPKE,,40.725542,-73.488508,,,,,,
387,HKBD1,HICKSVILLE RD + BOUNDARY AVE,,40.717002,-73.483485,,,,,,
389,BDBW1,BOUNDARY AVE + BROADWAY,,40.717235,-73.461107,,,,,,
390,MARR1,Massapequa LIRR Station,,40.67616,-73.471691,,,,,,
413,MRCY1,Mercy Medical,,40.686176,-73.634285,,,,,,
414,POST1,LIU Post,,40.820642,-73.597585,,,,,,
417,GVLE1,Northern Blvd + Glen Cove Rd,,40.809855,-73.628197,,,,,,
418,GLEN1,Pratt Blvd + Bridge St,,40.863038,-73.631858,,,,,,
419,GWLG1,Shore Rd + Scudders Lane,,40.823919,-73.645494,,,,,,
420,CTRN1,Roslyn Clock Tower,,40.800007,-73.65121,,,,,,
421,PLDM1,Northern Blvd & Plandome Rd,,40.792855,-73.697175,,,,,,
422,LVGN1,Northern Blvd & Lakeville Rd,,40.782164,-73.716089,,,,,,
423,CLGN1,Northern Blvd + Glenwood St Cityli,,40.772478,-73.73373,,,,,,
426,CWST1,SUNY - Old Westbury,,40.799523,-73.549663,,,,,,
427,J1821,Hillside Ave + 178 179th St. Subway,,40.712671,-73.78417,,,,,,
428,CHRY1,Hillside Ave + Cherry Lane,,40.739105,-73.70052,,,,,,
429,MRCS1,Hillside Ave + Marcus Ave,,40.751551,-73.673119,,,,,,
430,WILSW,Willis Ave @ Hillside Ave.,,40.756421,-73.645189,,,,,,
431,RSRDW,Hillside Ave + Roslyn Rd,,40.758345,-73.635165,,,,,,
432,JYCT1,Jericho Tpke + Jay Ct,,40.756014,-73.622696,,,,,,
433,WEST1,Maple Ave + Post Ave,,40.755884,-73.587607,,,,,,
434,RSRR1,Roslyn LIRR Station,,40.792051,-73.643479,,,,,,
436,PWRR1,Port Washington LIRR Station,,40.830533,-73.687925,,,,,,
437,MNRH1,Orchard Beach Blvd + Park Lane,,40.838666,-73.71691,,,,,,
438,FPKT1,Jericho Tpke + Tyson Ave,,40.728423,-73.705284,,,,,,
439,GCNU1,Jericho Tpke + Nassau Blvd,,40.74119,-73.663062,,,,,,
440,EMGC1,Glenn Curtiss Blvd,,40.720312,-73.577145,,,,,,
442,GVRR1,Greenvale LIRR Station,,40.814856,-73.626598,,,,,,
443,GNHD1,Glen Cove Ave + Glen Head Rd,,40.832848,-73.629877,,,,,,
446,MVBR1,Ellison Ave. + Privado Road,,40.745028,-73.592244,,,,,,
450,NCCE0,Nassau Comm Coll @ Endo Blvd,,40.73178,-73.591734,,,,,,
451,NCCE1,Nassau Comm Coll @ Endo Blvd,,40.731739,-73.591774,,,,,,
452,NCCE2,Nassau Com College @ Endo Blvd,,40.73179,-73.591567,,,,,,
453,NCCE3,Nassau Com Coll @ Endo Blvd,,40.7317,-73.591781,,,,,,
468,1018,Green Acres Rd@ Sunrise Hwy(BestBuy,,40.6639,-73.7247,,,,,,
469,2953,Prospect Ave + Hollywood Ave,,40.649369,-73.688968,,,,,,
473,2296,Munro Blvd + Horton Rd,,40.649915,-73.693112,,,,,,
475,2294,Munro Blvd + Gordon Rd,,40.649931,-73.694854,,,,,,
476,399,Central Ave + Hamilton Pl,,40.665321,-73.708263,,,,,,
477,6297,Munro Blvd + Locust St,,40.649869,-73.697631,,,,,,
478,421,Central Ave + Pilgrim Pl,,40.666124,-73.708284,,,,,,
479,2293,Munro Blvd + Amherst Rd,,40.649995,-73.700376,,,,,,
481,434,Central Ave + Stein St,,40.669945,-73.708327,,,,,,
483,396,Central Ave + Felton Ave,,40.671568,-73.708691,,,,,,
484,475,Cochran Pl Opp  South Dr,,40.652143,-73.702308,,,,,,
485,429,Central Ave + Rose Ave,,40.673618,-73.709239,,,,,,
486,472,Cochran Pl + Pine La,,40.655232,-73.702366,,,,,,
488,474,Cochran Pl + Roosevelt Ave,,40.658805,-73.702239,,,,,,
490,3012,Roosevelt Ave + S Franklin Ave,,40.659006,-73.704364,,,,,,
491,418,Central Ave + North Dr,,40.678176,-73.710018,,,,,,
492,3007,Roosevelt Ave + Derby St,,40.658563,-73.706542,,,,,,
493,441,Central Ave + Wells Rd,,40.679743,-73.710716,,,,,,
494,3014,Roosevelt Ave + Mill Rd,,40.658258,-73.709187,,,,,,
495,408,Central Ave + Seaton Gate,,40.682116,-73.712437,,,,,,
497,431,Central Ave + Salem Gate,,40.683213,-73.71412,,,,,,
499,3333,Stuart Ave + Central Ave,,40.685707,-73.715019,,,,,,
500,3338,Stuart Ave Opp Law St,,40.686512,-73.717724,,,,,,
501,3337,Stuart Ave Opp  Henry St,,40.686947,-73.719424,,,,,,
502,3340,Stuart Ave Opp  William St,,40.68758,-73.721006,,,,,,
503,3335,Stuart Ave + Elmont Rd,,40.687746,-73.722929,,,,,,
504,646,Elmont Rd +  Linden Blvd,,40.689496,-73.721624,,,,,,
505,651,Elmont Rd + 116TH  Rd.,,40.692134,-73.71959,,,,,,
506,656,Elmont Rd + D.Broadway(St Boniface),,40.694246,-73.717454,,,,,,
507,658,Elmont Rd Opp  Village Ave,,40.696381,-73.715903,,,,,,
508,648,Elmont Rd +Opp Cerenzia Blvd,,40.697673,-73.714939,,,,,,
509,642,Elmont Rd + Belmont Ave,,40.699592,-73.713613,,,,,,
510,645,Elmont Rd +Opp Beth David Cemetery,,40.700971,-73.712972,,,,,,
511,653,Elmont Rd  Opp Joan Ct,,40.704521,-73.710709,,,,,,
512,649,Elmont Rd Opp Chowan St,,40.705701,-73.710543,,,,,,
514,6242,Hempstead Tpke Opp Holland Ave,,40.708307,-73.713568,,,,,,
515,1292,Hempstead Tpke & Savoy Ave,,40.70801,-73.715283,,,,,,
516,1200,Hempstead Tpke & Fieldmere St,,40.708098,-73.71834,,,,,,
517,6301,Hempstead Tpke & Sterling Rd,,40.708517,-73.719932,,,,,,
518,1257,Hempstead Tpke & Locustwood Blvd,,40.70913,-73.721717,,,,,,
522,6092,Hempstead Ave & 223rd St,,40.712213,-73.731098,,,,,,
524,6157,Hempstead Ave & Springfield Blvd,,40.713298,-73.735945,,,,,,
525,6098,Hempstead Ave & 217th La,,40.714128,-73.738712,,,,,,
528,1597,Jamaica Ave Opp  212th St,,40.715592,-73.746929,,,,,,
532,701,Jamaica Ave & Francis Lewis Blvd,,40.713885,-73.753939,,,,,,
533,700,Francis Lewis Blvd & 93rd Ave,,40.716158,-73.755804,,,,,,
534,699,Francis Lewis Blvd & 90th Ave,,40.718059,-73.757259,,,,,,
535,697,Francis Lewis Blvd & 89th Ave,,40.719536,-73.758148,,,,,,
536,1509,Hillside Ave & Francis Lewis Blvd,,40.720627,-73.760477,,,,,,
537,6433,Hillside Ave & 202nd St,,40.719867,-73.762068,,,,,,
540,1526,Hillside Ave + 193rd St,,40.716597,-73.76894,,,,,,
544,6419,Hillside Ave & 184th St,,40.713962,-73.778182,,,,,,
547,6406,Hillside Ave & 173rd St,,40.711891,-73.789842,,,,,,
549,1519,Hillside Ave & 170 St. (169 Subway),,40.71101,-73.791967,,,,,,
553,644,Elmont Rd + Belpark Ave,,40.705826,-73.710616,,,,,,
556,1399,Hillside Ave + 168th St 169 St Subw,,40.709901,-73.794758,,,,,,
561,650,Elmont Rd + Dutch Broadway,,40.694335,-73.717503,,,,,,
564,6426,Hillside Ave & 193rd St,,40.716621,-73.76937,,,,,,
565,3336,Stuart Ave + Elmont Rd,,40.687721,-73.722761,,,,,,
566,1427,Hillside Ave & 195th Pl,,40.716978,-73.767965,,,,,,
567,3334,Stuart Ave + Elizabeth St,,40.687254,-73.720358,,,,,,
568,6431,Hillside Ave & 197th St,,40.718271,-73.765606,,,,,,
569,3339,Stuart Ave + Olsen St,,40.686675,-73.718728,,,,,,
571,3331,Stuart Ave + Bank St,,40.68632,-73.716947,,,,,,
572,3332,Stuart Ave + Central Ave,,40.68568,-73.715078,,,,,,
573,6508,Hillside Ave & Francis Lewis Blvd,,40.720956,-73.759454,,,,,,
574,397,Central Ave + Fenwood Dr,,40.683406,-73.714623,,,,,,
575,698,Francis Lewis Blvd & 89th Ave,,40.719499,-73.758327,,,,,,
576,409,Central Ave + Margaret Dr,,40.682159,-73.712747,,,,,,
577,394,Central Ave + Clovelly Dr,,40.679939,-73.710885,,,,,,
578,1606,Francis Lewis Blvd & Jamaica Ave,,40.713982,-73.75406,,,,,,
579,398,Central Ave + Fritchie Pl,,40.67575,-73.70955,,,,,,
580,6582,Jamaica Ave & 210th St,,40.714834,-73.750823,,,,,,
581,2987,Rockaway Ave + Munro Blvd,,40.650351,-73.69041,,,,,,
582,395,Central Ave + Ethel Pl,,40.673742,-73.70942,,,,,,
583,1607,Jamaica Ave opp Hollis Court Blvd,,40.715287,-73.748441,,,,,,
586,3735,Jamaica Ave & 212th Pl.,,40.715993,-73.745668,,,,,,
588,1101,Hempstead Ave & 99th Ave,,40.714879,-73.741215,,,,,,
590,438,Central Ave + Valley Stream Blvd,,40.664489,-73.708528,,,,,,
591,1354,Valley Stream Blvd + Hicks St,,40.66352,-73.704115,,,,,,
601,3004,Mill Rd & Old Central Ave,,40.659563,-73.709672,,,,,,
603,3008,Roosevelt Ave + Elmwood St,,40.65837,-73.707422,,,,,,
604,3006,Roosevelt Ave + Cambridge St,,40.658667,-73.70572,,,,,,
606,3010,Roosevelt Ave Opp  S Franklin Ave,,40.658908,-73.704303,,,,,,
607,473,Cochran Pl + Roosevelt Ave,,40.658697,-73.702309,,,,,,
608,476,Cochran Pl + Spruce La,,40.653857,-73.702362,,,,,,
609,471,Cochran Pl + Pershing Av,,40.651607,-73.702385,,,,,,
611,2298,Munro Blvd + Marlboro Rd,,40.649875,-73.699492,,,,,,
613,2299,Munro Blvd + Horton Rd,,40.649852,-73.693183,,,,,,
614,2988,Rockaway Ave + Prospect Ave,,40.649428,-73.689494,,,,,,
622,2982,Rockaway Ave + Jamaica Ave,,40.661589,-73.699646,,,,,,
629,WARP,Wheeler Ave & Rockaway Pkwy,,40.673409,-73.694147,,,,,,
638,6968,Meacham Ave + Union Ave,,40.705719,-73.690398,,,,,,
641,6963,Meacham Ave + P St,,40.688604,-73.69151,,,,,,
645,6959,Meacham Ave + L St,,40.690867,-73.690927,,,,,,
646,1195,Hempstead Tpke & Lincoln St.,,40.707019,-73.698181,,,,,,
648,1243,Hempstead Tpke & Jacob St.,,40.707205,-73.701358,,,,,,
651,1951,Meacham Ave + E St,,40.694062,-73.691188,,,,,,
656,1949,Meacham Ave + Rosser Ave,,40.697421,-73.690915,,,,,,
657,6966,Meacham Ave + Sun Ave,,40.704719,-73.690446,,,,,,
659,1945,Meacham Ave + Scimitar Ave,,40.70027,-73.690815,,,,,,
660,6955,Meacham Ave + Herald Ave,,40.702379,-73.690588,,,,,,
661,1198,Hempstead Tpk Opp Belmont Racetrack,,40.710371,-73.725956,,,,,,
667,1411,Hillside Ave & 175th St,,40.711869,-73.787789,,,,,,
668,1964,Meacham Ave + Appeal Ave,,40.700735,-73.690653,,,,,,
670,1962,Meacham Ave + Collier Ave,,40.697529,-73.690857,,,,,,
673,1952,Meacham Ave + E St,,40.693982,-73.691056,,,,,,
691,2983,Rockaway Ave + Valley Stream Blvd,,40.662289,-73.699081,,,,,,
695,737,Franklin Ave + Hendrickson Ave,,40.66619,-73.671344,,,,,,
697,7811,Franklin Ave + Whitehall St,,40.670697,-73.673218,,,,,,
699,715,Franklin Ave Opp Broadway,,40.672448,-73.674513,,,,,,
702,7201,Franklin Ave + Cornwell Ave,,40.674962,-73.679657,,,,,,
704,762,Franklin Ave + Franklin Gate,,40.690689,-73.684947,,,,,,
715,783,Franklin Ave + Wright St,,40.678568,-73.684218,,,,,,
716,730,Franklin Ave + Polk Ave,,40.698314,-73.68213,,,,,,
720,758,Franklin Ave + Corona Ave,,40.687949,-73.686265,,,,,,
721,7321,Franklin Ave Opp Franklin Gate,,40.690662,-73.685101,,,,,,
722,1254,Hempstead Tpke & Lexington Ave.,,40.707806,-73.67913,,,,,,
723,7271,Franklin Ave Opp Ferngate Dr,,40.691916,-73.684411,,,,,,
724,1289,Hempstead Tpke & Renken Blvd.,,40.708129,-73.681747,,,,,,
726,1193,Hempstead Tpke & Barrymore Blvd.,,40.708341,-73.683731,,,,,,
727,729,Franklin Ave Opp 3rd  Ave,,40.693538,-73.68351,,,,,,
729,755,Franklin Ave Opp Oaks Dr,,40.696239,-73.682764,,,,,,
734,708,Franklin Ave + Adams Ave,,40.701286,-73.680921,,,,,,
736,719,Franklin Ave + Langdon St,,40.70231,-73.679882,,,,,,
737,714,Franklin Ave + Benris Ave,,40.704773,-73.6772,,,,,,
744,771,Franklin Ave + Theodora St,,40.704154,-73.677694,,,,,,
747,760,Franklin Ave & Van Buren Ave,,40.699878,-73.681873,,,,,,
748,709,Franklin Ave + Arlington Dr,,40.69834,-73.682345,,,,,,
749,757,Franklin Ave +  Oaks Dr,,40.69632,-73.682669,,,,,,
751,724,Franklin Ave + Dutch Broadway,,40.684791,-73.685861,,,,,,
752,734,LIJ Valley Stream,,40.681835,-73.685852,,,,,,
753,717,Franklin Ave + Cedarlawn Blvd,,40.679644,-73.685029,,,,,,
755,779,Union Tpke Opp #1400,,40.753987,-73.695299,,,,,,
766,736,Franklin Ave + Gates Ave,,40.673728,-73.677032,,,,,,
767,743,Franklin Ave + Highland Blvd,,40.669021,-73.672842,,,,,,
768,741,Franklin Ave Opp Edwards  St.,,40.66692,-73.671793,,,,,,
771,19,Archer Ave + Merrick Blvd,,40.704423,-73.7929,,,,,,
773,2030,Merrick Blvd + 105th Ave,,40.700839,-73.789454,,,,,,
774,6032,Merrick Blvd + 107th Ave,,40.699923,-73.789013,,,,,,
775,6033,Merrick Blvd + 108th Ave,,40.698318,-73.787311,,,,,,
777,6034,Merrick Blvd + 109th Ave,,40.696891,-73.784453,,,,,,
779,6039,Merrick Blvd + 111th Ave,,40.694143,-73.781663,,,,,,
781,6042,Merrick Blvd + Linden Blvd,,40.691487,-73.77953,,,,,,
782,6044,Merrick Blvd + 115th Ave,,40.689685,-73.777969,,,,,,
783,6045,Merrick Blvd + 116th Ave,,40.688141,-73.776614,,,,,,
784,6028,Merrick Blvd + Foch Blvd,,40.686672,-73.774663,,,,,,
786,6057,Merrick Blvd + Victoria Rd,,40.685027,-73.772328,,,,,,
787,6025,Merrick Blvd + Baisley Blvd,,40.683633,-73.769854,,,,,,
788,2035,Merrick Blvd + Ursina Rd,,40.682501,-73.766953,,,,,,
789,2036,Merrick Blvd + Selover Rd,,40.681691,-73.765273,,,,,,
791,2038,Merrick Blvd + Farmers Blvd.,,40.679885,-73.761672,,,,,,
792,6023,Merrick Blvd + Belknap St,,40.678773,-73.759678,,,,,,
793,6048,Merrick Blvd Opp Montauk St,,40.679379,-73.757192,,,,,,
795,6054,Merrick Blvd + Springfield Blvd,,40.679974,-73.753656,,,,,,
797,801c,Merrick Blvd + 220th St,,40.678878,-73.749276,,,,,,
798,801d,Merrick Blvd + 222nd St,,40.678277,-73.74705,,,,,,
799,801b,Merrick Blvd + 224th St,,40.677813,-73.745613,,,,,,
801,801g,Merrick Blvd + 228th St,,40.676595,-73.742068,,,,,,
802,801h,Merrick Blvd + 230th St,,40.675999,-73.740331,,,,,,
803,6021,Merrick Blvd + 231st St,,40.675359,-73.738546,,,,,,
804,6020,Merrick Blvd + 233rd St,,40.674878,-73.737049,,,,,,
807,2022,Merrick Blvd + 242nd  St,,40.673984,-73.73167,,,,,,
809,2075,Merrick Rd + Roeckel Ave,,40.672877,-73.723379,,,,,,
810,2133,Merrick Rd + Arlington Ave.,,40.671854,-73.721303,,,,,,
811,6178,Merrick Rd Opp Shaw Ave,,40.670122,-73.717156,,,,,,
812,2184,Merrick Rd + N Montague St,,40.66879,-73.713169,,,,,,
813,6072,Merrick Rd & Central Av,,40.667747,-73.708601,,,,,,
814,2064,Merrick Rd + N Franklin Ave.,,40.665695,-73.70117,,,,,,
817,2171,Merrick Rd + Emerson Pl.,,40.663617,-73.693633,,,,,,
818,6099,Merrick Rd Opp Cornwell Ave,,40.662847,-73.69106,,,,,,
819,6125,Merrick Rd + Horton Ave,,40.661823,-73.687817,,,,,,
821,2192,Merrick Rd + Wilson Ave,,40.660363,-73.68266,,,,,,
822,2127,Merrick Rd + Curtis Pl.,,40.659172,-73.678783,,,,,,
823,2160,Merrick Rd + Neimann Ave,,40.658534,-73.676605,,,,,,
826,2158,Merrick Rd + Park Pl,,40.662271,-73.5321,,,,,,
827,6093,Merrick Rd Opp Charles St,,40.658404,-73.661028,,,,,,
830,6175,Merrick Rd + S Village Ave,,40.656438,-73.647518,,,,,,
832,2101,Merrick Rd. & Morris Ave,,40.655883,-73.641645,,,,,,
833,2172,Merrick Rd + N Forest Ave,,40.655405,-73.63786,,,,,,
834,6134,Merrick Rd + Long Beach Rd,,40.654549,-73.634476,,,,,,
835,6155,Merrick Rd + Oceanside Rd,,40.653888,-73.63138,,,,,,
837,2167,Merrick Rd + Yorktown St,,40.653756,-73.626394,,,,,,
838,2179,Merrick Rd + Charing Cross Rd,,40.653493,-73.622372,,,,,,
839,6159,Merrick Rd + Parkview Pl,,40.653534,-73.619737,,,,,,
840,6131,Merrick Rd Opp Lancaster Ave,,40.653173,-73.617205,,,,,,
841,6167,Merrick Rd Opp Pershing Blvd,,40.65205,-73.615238,,,,,,
842,2115,Merrick Rd + Grand Ave,,40.650753,-73.612542,,,,,,
843,6118,Merrick Rd + Harrison Ave,,40.651015,-73.608741,,,,,,
844,6087,Merrick Rd + Central Ave,,40.651241,-73.606489,,,,,,
845,6141,Merrick Rd + Milburn Ave,,40.651049,-73.604209,,,,,,
846,2077,Merrick Rd + Brookside Ave,,40.663825,-73.515439,,,,,,
847,6136,Merrick Rd + Madison Ave,,40.651636,-73.596416,,,,,,
848,2065,Merrick Rd + S Bayview Ave,,40.652024,-73.593891,,,,,,
849,2134,Merrick Rd + S Long Beach Ave,,40.652592,-73.589592,,,,,,
850,2116,Merrick Rd & Guy Lombardo Ave,,40.653549,-73.584294,,,,,,
852,1349,Merrick Rd & S Main Street,,40.654765,-73.578986,,,,,,
854,1350,Henry St + Merrick Rd,,40.654827,-73.578999,,,,,,
855,2174,Merrick Rd + Church St,,40.654036,-73.581627,,,,,,
856,2117,Merrick Rd + Guy Lombardo Ave,,40.653522,-73.584353,,,,,,
857,2170,Merrick Rd + S Bayview Ave,,40.651997,-73.593915,,,,,,
858,2092,Merrick Rd + Soper Ave,,40.653356,-73.622836,,,,,,
859,2198,Merrick Rd + Rockville Centre Pkwy,,40.653626,-73.627192,,,,,,
862,2148,Merrick Rd + S. Forest Ave,,40.65526,-73.638097,,,,,,
863,2145,Merrick Rd + Davison Pl,,40.655696,-73.641464,,,,,,
864,3355,Merrick Rd + Ocean Ave,,40.659025,-73.657039,,,,,,
865,2163,Merrick Rd + Denton Ave,,40.658015,-73.666319,,,,,,
868,2150,Merrick Rd + Peninsula Blvd,,40.658024,-73.675193,,,,,,
869,2100,Merrick Rd + John St,,40.65888,-73.678362,,,,,,
870,2193,Merrick Rd Opp Wilson Ave,,40.660149,-73.682574,,,,,,
874,2063,Merrick Rd + Ballard Av - Burger K,,40.666576,-73.704651,,,,,,
875,2143,Merrick Rd + Waldinger St,,40.668508,-73.712581,,,,,,
876,2060,Merrick Rd + Liberty Blvd,,40.671666,-73.721385,,,,,,
877,2168,Merrick Rd + Broadway,,40.673076,-73.724288,,,,,,
879,3811,Merrick Rd + 241nd St,,40.673585,-73.732608,,,,,,
883,2027,Merrick Blvd & 130th Rd Farmers Blv,,40.679704,-73.761968,,,,,,
885,2053,Merrick Blvd + 127th Ave,,40.681457,-73.765497,,,,,,
886,2055,Merrick Blvd + 125th Ave,,40.682232,-73.767057,,,,,,
888,2031,Merrick Blvd Opp 104th Ave,,40.701491,-73.79068,,,,,,
890,18,Archer Ave + Merrick Blvd,,40.704252,-73.793101,,,,,,
894,851,Fulton St + Hilton Ave,,40.707144,-73.630704,,,,,,
895,846,Fulton St & Front St.,,40.704934,-73.637734,,,,,,
896,859,Fulton St + St Pauls Rd,,40.705817,-73.634831,,,,,,
897,853,Fulton St  Opp. Mead St,,40.704974,-73.636959,,,,,,
900,1265,Hempstead Tpke & Morton Ave,,40.705039,-73.645779,,,,,,
901,1191,Hempstead Tpke & Poplar St.,,40.705007,-73.651257,,,,,,
902,1202,Hempstead Tpke & Walnut St.,,40.705059,-73.653119,,,,,,
903,1279,Hempstead Tpke & S Cherry Valley Av,,40.705509,-73.657062,,,,,,
905,1207,Hempstead Tpke & Nassau Blvd.,,40.706069,-73.660469,,,,,,
906,1283,Hempstead Tpke & Fendale St.,,40.70669,-73.665811,,,,,,
907,1236,Hempstead Tpke & Clafin Blvd.,,40.706824,-73.67018,,,,,,
908,1259,Hempstead Tpke & Madison St,,40.707135,-73.673442,,,,,,
910,1253,Hempstead Tpke & Randolph Ave,,40.707736,-73.678938,,,,,,
931,1256,Hempstead Tpke & Grand St.,,40.708481,-73.687003,,,,,,
936,1258,Hempstead Tpke & Monroe St,,40.707194,-73.672559,,,,,,
937,1211,Hempstead Tpke & Poppy Ave.,,40.706903,-73.668976,,,,,,
938,1221,Hempstead Tpke & Caroline  Ave,,40.706797,-73.66574,,,,,,
940,1290,Hempstead Tpke & Greenway St. South,,40.706109,-73.659861,,,,,,
941,1309,Hempstead Tpke Opp Peach Grove Dr,,40.705395,-73.655211,,,,,,
942,1282,Hempstead Tpke & Brooklyn Ave.,,40.705131,-73.652953,,,,,,
943,1263,Hempstead Tpke & Arden Blvd.,,40.705078,-73.649873,,,,,,
944,1272,Hempstead Tpke & Mayfair Ave,,40.705108,-73.646293,,,,,,
946,2351,Fulton St & Terrace Ave,,40.707882,-73.628109,,,,,,
976,590,E Park Ave + Edwards Blvd,,40.588378,-73.663851,,,,,,
977,1848,Long Beach Rd + Park Ave,,40.588814,-73.65803,,,,,,
978,6833,Long Beach Rd +  E Hudson St,,40.590734,-73.65799,,,,,,
979,1830,Long Beach Rd + E Harrison St,,40.592922,-73.656428,,,,,,
980,2314,N Centre Ave + Maine Ave,,40.663878,-73.650291,,,,,,
982,2321,N Centre Ave &Lakeview Ave (School),,40.666318,-73.649708,,,,,,
983,1855,Long Beach Rd + Warwick Rd,,40.601327,-73.655766,,,,,,
985,6852,Long Beach Rd + Sagamore Rd,,40.604122,-73.655688,,,,,,
986,3682,Woodfield Rd Opp Clinton St,,40.671288,-73.653362,,,,,,
988,6685,Woodfield Rd + Coolidge Ave,,40.672692,-73.653067,,,,,,
989,1849,Long Beach Rd + Parma Rd,,40.607496,-73.654388,,,,,,
990,3696,Woodfield Rd Opp Pinebrook St,,40.675122,-73.65283,,,,,,
991,1847,Long Beach Rd + Ostend Rd,,40.608198,-73.653466,,,,,,
992,3675,Woodfield Rd Opp Canandaigua Ave,,40.676175,-73.652889,,,,,,
993,1846,Long Beach Rd + Newport Rd,,40.608972,-73.652449,,,,,,
994,3683,Woodfield Rd + Colonial Rd,,40.677104,-73.652863,,,,,,
995,1841,Long Beach Rd + Marina Rd,,40.60961,-73.651633,,,,,,
996,3686,Woodfield Rd + Coventry Rd,,40.679666,-73.652925,,,,,,
997,1838,Long Beach Rd + Lorraine Rd,,40.610321,-73.650711,,,,,,
998,3690,Woodfield Rd + Janos Ave,,40.681951,-73.653009,,,,,,
999,1837,Long Beach Rd + Kildaire Rd,,40.610987,-73.6498,,,,,,
1001,1827,Long Beach Rd + Carolina Ave.,,40.61249,-73.647849,,,,,,
1002,6694,Woodfield Rd + Oakford St,,40.688459,-73.651824,,,,,,
1003,1839,Long Beach Rd + Louisiana Ave,,40.613958,-73.645588,,,,,,
1004,6693,Woodfield Rd + Maple St,,40.690167,-73.651293,,,,,,
1005,6825,Long Beach Rd + Austin Blvd,,40.615918,-73.643272,,,,,,
1006,6689,Woodfield Rd + Elm St,,40.691957,-73.650608,,,,,,
1007,1823,Long Beach Rd @ Hemp.Incinerator,,40.618296,-73.641115,,,,,,
1008,6700,Woodfield Rd + Walton St,,40.693497,-73.649932,,,,,,
1009,1836,LongBeach Rd Opp Daly Bvd Waldbaums,,40.621704,-73.640161,,,,,,
1010,3680,Woodfield Rd + Chestnut St,,40.695021,-73.648909,,,,,,
1012,3692,Woodfield Rd + Linden St,,40.697459,-73.647264,,,,,,
1014,6674,Woodfield Rd + Bedell Terrace,,40.698742,-73.646263,,,,,,
1015,6832,Long Beach Rd + Henrietta Ave,,40.628769,-73.64114,,,,,,
1016,3676,Woodfield Rd + Cedar St,,40.700215,-73.644703,,,,,,
1017,6856,Long Beach Rd + Waukena Ave,,40.630163,-73.641047,,,,,,
1018,1168,Hempstead Ave + Woodfield Rd,,40.702321,-73.643293,,,,,,
1019,1828,Long Beach Rd + Cortland Ave,,40.631379,-73.640749,,,,,,
1020,1133,Hempstead Ave + Hemp Gardens Dr,,40.703363,-73.640702,,,,,,
1021,6844,Long Beach Rd + Montgomery Ave,,40.633012,-73.640849,,,,,,
1022,6857,Long Beach Rd + Weidner Ave,,40.634495,-73.640686,,,,,,
1023,6858,Long Beach Rd + Windsor Pkwy,,40.635782,-73.640496,,,,,,
1024,1818,Long Beach Rd  Opp Mahland Pl,,40.638018,-73.639935,,,,,,
1025,1826,Long Beach Rd + Bellevue  Ave,,40.639635,-73.639737,,,,,,
1028,3706,Woods Ave + Davis St,,40.642817,-73.642202,,,,,,
1029,3703,Woods Ave  Opp Arnold Ave.,,40.644729,-73.643593,,,,,,
1030,6704,Woods Ave + Chester Ave,,40.64616,-73.644729,,,,,,
1031,6553,Washington Ave + Garden St,,40.720824,-73.625829,,,,,,
1032,6707,Woods Ave + Driscoll Ave,,40.64793,-73.645808,,,,,,
1033,6547,Washington Ave + Chestnut St,,40.723631,-73.626884,,,,,,
1034,6713,Woods Ave Opp Woodland Ave,,40.64923,-73.646502,,,,,,
1035,6572,Washington Ave + Stewart Ave,,40.727658,-73.628393,,,,,,
1036,3708,Woods Ave OppShellbank Pl(ArborLn),,40.650772,-73.646947,,,,,,
1037,3578,Washington Ave + Warton Pl,,40.730359,-73.629184,,,,,,
1038,6874,Park Pl + Park Ave,,40.653238,-73.648082,,,,,,
1040,3141,S Park Ave + Lenox Rd,,40.654706,-73.646034,,,,,,
1041,2757,Old Country Rd @ Roslyn Rd.,,40.740148,-73.633403,,,,,,
1043,2781,Old Country Rd + Juniper Ave.,,40.740684,-73.630244,,,,,,
1046,2316,N Centre Ave + Washington Ave,,40.658953,-73.649524,,,,,,
1047,2762,Old Country Rd & Croyden Rd,,40.741136,-73.627789,,,,,,
1048,2315,N Centre Ave Opp Randall Ave,,40.660898,-73.649843,,,,,,
1049,2721,Old Country Rd + Berkley Rd,,40.741578,-73.625298,,,,,,
1050,2799,Old Country Rd & Laurel Dr,,40.741919,-73.62351,,,,,,
1051,2736,Old Country Rd + #1 Old Country Rd.,,40.742252,-73.621483,,,,,,
1053,600,East Gate Blvd & North Ave(DMV),,40.742155,-73.606724,,,,,,
1054,3576,Washington Ave + Van Cott St,,40.715221,-73.623505,,,,,,
1055,463,Clinton St + Jackson St,,40.711853,-73.620487,,,,,,
1056,3559,Washington Ave + Lincoln Blvd,,40.717413,-73.624314,,,,,,
1057,468,Clinton St + Yale St,,40.714387,-73.620834,,,,,,
1058,6562,Washington Ave + Meadow St,,40.718953,-73.625142,,,,,,
1059,460,Clinton St + Dartmouth St,,40.716442,-73.620688,,,,,,
1060,466,Clinton St + Meadow St,,40.71987,-73.620722,,,,,,
1061,4561,Clinton Rd + Poplar St,,40.722629,-73.62075,,,,,,
1062,4531,Clinton Rd + Chestnut St,,40.72488,-73.620677,,,,,,
1063,454,Clinton Rd + Commercial Ave,,40.727007,-73.620376,,,,,,
1064,3279,Stewart Ave + Clinton Rd,,40.72977,-73.619556,,,,,,
1065,531,County Seat Dr + Nassau County DPW,,40.732709,-73.633661,,,,,,
1067,530,County Seat Dr + Courthouse Dr,,40.737654,-73.635586,,,,,,
1068,533,County Seat Dr + Old Country Rd,,40.739337,-73.636344,,,,,,
1069,2806,Glen Cove Rd  at  Macys,,40.743975,-73.616641,,,,,,
1075,459,Clinton Rd + Stewart Ave,,40.729454,-73.620173,,,,,,
1077,458,Clinton Rd + St James St,,40.726934,-73.62059,,,,,,
1079,2812,Old Country Rd Opp 1 Old Country Rd,,40.742127,-73.621506,,,,,,
1080,2755,Old Country Rd  & Linden St.,,40.741619,-73.624426,,,,,,
1081,455,Clinton Rd + Meadow St,,40.719906,-73.620806,,,,,,
1082,2727,Old Country Rd + Maple St.,,40.741087,-73.627012,,,,,,
1083,467,Clinton St + Miriam St,,40.716914,-73.620896,,,,,,
1085,465,Clinton St + Lent Ave,,40.71427,-73.620988,,,,,,
1086,2753,Old Country Rd + Lefferts Rd.,,40.74045,-73.630659,,,,,,
1087,464,Clinton St + Jackson St,,40.711745,-73.620665,,,,,,
1089,2790,Old Country Rd + Washington Ave.,,40.740079,-73.63302,,,,,,
1090,3579,Washington Ave + Warton Pl,,40.730091,-73.629313,,,,,,
1092,534,County Seat Dr at Nassau County DPW,,40.733002,-73.633999,,,,,,
1093,3569,Washington Ave + Seitz Ave,,40.716939,-73.624357,,,,,,
1094,3575,Washington Ave + Van Cott Ave,,40.715041,-73.623634,,,,,,
1095,3550,Washington Ave + Columbia St,,40.712618,-73.622691,,,,,,
1098,1165,Hempstead Ave + Walton St.,,40.694732,-73.655505,,,,,,
1099,3677,Woodfield Rd Opp Cedar St,,40.700429,-73.644801,,,,,,
1100,3691,Woodfield Rd + Lindberg St,,40.697547,-73.647456,,,,,,
1101,3684,Woodfield Rd + Colony St,,40.696255,-73.648504,,,,,,
1102,3679,Woodfield Rd + Chestnut St,,40.694974,-73.649207,,,,,,
1106,3678,Woodfield Rd + Champlain Ave,,40.677237,-73.653067,,,,,,
1107,3695,Woodfield Rd + Pinebrook Ave,,40.674969,-73.653031,,,,,,
1108,3681,Woodfield Rd + Clinton Ave,,40.671198,-73.653564,,,,,,
1110,2319,N Centre Ave + Lakeview Ave,,40.666246,-73.649815,,,,,,
1111,2313,N Centre Ave + Maine Ave,,40.664046,-73.65052,,,,,,
1112,2320,N Centre Ave + Wellington Rd,,40.662913,-73.650365,,,,,,
1114,3145,S Railroad Service Rd + N Village A,,40.657891,-73.647903,,,,,,
1116,3142,S Park Ave + Lincoln Rd,,40.654176,-73.646505,,,,,,
1117,3709,Woods Ave + Shellbank Pl,,40.650868,-73.64721,,,,,,
1118,3711,Woods Ave & Arnold Ave.,,40.644069,-73.643384,,,,,,
1119,3705,Woods Ave + Davis St,,40.642727,-73.642392,,,,,,
1121,1824,Long Beach Rd + Atlantic Ave,,40.63916,-73.640018,,,,,,
1122,1840,Long Beach Rd + Mahland Pl,,40.638034,-73.64015,,,,,,
1123,1854,Long Beach Rd + W Cortland Ave,,40.631565,-73.640954,,,,,,
1124,1859,Long Beach Rd @. Daly Ave.,,40.621772,-73.640627,,,,,,
1125,1842,Long Beach Rd + McCarthy Rd,,40.613722,-73.646325,,,,,,
1126,1821,Long Beach Rd + Ladomus (opp Sherma,,40.612767,-73.647757,,,,,,
1127,1850,Long Beach Rd + Redfield Rd,,40.610895,-73.650348,,,,,,
1128,1843,Long Beach Rd + Marina Pl,,40.609518,-73.652097,,,,,,
1129,1819,Long Beach Rd Opp Parma Rd,,40.607836,-73.654273,,,,,,
1130,1852,Long Beach Rd + Scully Pl,,40.606311,-73.65552,,,,,,
1132,1831,Long Beach Rd + E Pine St,,40.592391,-73.65715,,,,,,
1133,591,E Park St + Long Beach Rd,,40.588722,-73.658589,,,,,,
1134,593,E Park St + Riverside Blvd,,40.588681,-73.662472,,,,,,
1136,3325,Stewart Ave @ KeySpan Power Station,,40.731671,-73.611683,,,,,,
1137,3321,Stewart Ave at Stewart Plaza,,40.732103,-73.609538,,,,,,
1140,3258,Stewart Ave + Quentin Roosevelt Blv,,40.733209,-73.604845,,,,,,
1141,6292,Stewart Ave + New York State DOT,,40.734344,-73.599794,,,,,,
1142,6303,Stewart Ave + Selfridge Ave,,40.734748,-73.597768,,,,,,
1143,3260,Stewart Ave @ #710 Opp INS,,40.732815,-73.606668,,,,,,
1144,5142,Endo Blvd + Stewart Ave,,40.735786,-73.592286,,,,,,
1148,3341,Student Union Service Rd + Davis Av,,40.728687,-73.59568,,,,,,
1149,597,C Lindbergh Earle Ovington + NCC,,40.726061,-73.592527,,,,,,
1150,3883,Earle Ovington Bkvd + West Dr IRS,,40.727539,-73.601602,,,,,,
1151,4451,Charles Lindbergh Blvd + Westbury B,,40.723553,-73.603832,,,,,,
1153,3612,Westbury Blvd + Warren St,,40.721835,-73.607814,,,,,,
1154,3605,Westbury Blvd + Commander St,,40.719901,-73.610325,,,,,,
1155,3611,Westbury Blvd + Pilot St,,40.718233,-73.611729,,,,,,
1156,3607,Westbury Blvd Opp Harvard Ave,,40.715456,-73.613301,,,,,,
1157,1575,Jackson St + Bennett Ave,,40.712869,-73.616152,,,,,,
1158,1576,Jackson St + Clinton St,,40.711819,-73.620331,,,,,,
1160,3124,S Franklin Ave + Fulton St,,40.707567,-73.626877,,,,,,
1161,6127,S Franklin Ave Opp Newman Ct,,40.704573,-73.625832,,,,,,
1163,3119,S Franklin Ave Opp Cruickshank Ave,,40.699443,-73.62343,,,,,,
1164,3126,S Franklin Ave + Linden Ave,,40.698464,-73.622907,,,,,,
1165,3130,S Franklin Ave + W Graham Ave,,40.697048,-73.622212,,,,,,
1166,6129,S Franklin Ave + Peters Ave,,40.695318,-73.621849,,,,,,
1167,3121,S Franklin Ave + Dorlan St,,40.693068,-73.621922,,,,,,
1168,3117,S Franklin Ave + Burnett St,,40.692129,-73.622115,,,,,,
1169,3131,S Franklin Ave + W Marshall St,,40.69008,-73.622834,,,,,,
1170,3118,S Franklin Ave + Carolina Ave,,40.688665,-73.623644,,,,,,
1172,6138,Hempstead Ave & Locust St,,40.684868,-73.625598,,,,,,
1173,1106,Hempstead Ave + Atkinson Rd,,40.683147,-73.626869,,,,,,
1174,1171,Hempstead Ave + Wright Rd,,40.682025,-73.627908,,,,,,
1175,6120,Hempstead Ave + Columbia Rd,,40.680809,-73.629661,,,,,,
1176,1160,Hempstead Ave + Vandeveer Ct,,40.678942,-73.631491,,,,,,
1177,1151,Hempstead Ave + Roxen Rd,,40.677993,-73.631828,,,,,,
1178,1103,Hempstead Ave + Andover Rd,,40.676396,-73.633183,,,,,,
1179,1131,Hempstead Ave + Fountain Ave,,40.675004,-73.634648,,,,,,
1180,6123,Hempstead Ave + DeMott Ave,,40.673433,-73.636159,,,,,,
1181,1143,Hempstead Ave + Midwood Rd,,40.672006,-73.637373,,,,,,
1182,1161,Hempstead Ave + Varick Ct,,40.668659,-73.64019,,,,,,
1183,1104,Hempstead Ave + Argyle Pl,,40.667216,-73.641284,,,,,,
1184,1162,Hempstead Ave + Vassar Pl,,40.665215,-73.642874,,,,,,
1185,6137,Hempstead Ave + Lakeview Ave,,40.663939,-73.644257,,,,,,
1186,1134,Hempstead Ave + Irving Pl,,40.662985,-73.645606,,,,,,
1187,1144,Hempstead Ave + N Village Ave,,40.661202,-73.648164,,,,,,
1188,2317,N Centre Ave Opp Washington St,,40.658845,-73.649678,,,,,,
1207,1577,Jackson St + Clinton St,,40.711568,-73.620472,,,,,,
1209,1574,Jackson St + Bennett Ave,,40.712663,-73.616138,,,,,,
1211,1578,Westbury Blvd + Vermont Ave,,40.713691,-73.614418,,,,,,
1213,3634,Willis Ave + Harvard St,,40.762372,-73.64617,,,,,,
1215,3609,Westbury Blvd + Myrtle Ave,,40.718379,-73.611218,,,,,,
1217,3606,Westbury Blvd + Fairview Ave,,40.719715,-73.610133,,,,,,
1220,3862,Oak St & Westbury Blvd,,40.723126,-73.606848,,,,,,
1225,3842,Student Union Service Rd & Davis Av,,40.728822,-73.595502,,,,,,
1227,3734,Hazelhurst Ave @ Bradley Hall  NCC,,40.732276,-73.595751,,,,,,
1229,3719,Duncan Ave @ Bookstore  - NCC,,40.731733,-73.597238,,,,,,
1230,2229,Miller Ave + Endo Blvd  -NCC,,40.733063,-73.591221,,,,,,
1233,3263,Stewart Ave Opp Endo Blvd,,40.735981,-73.592646,,,,,,
1234,3319,Stewart Ave @ #l075 Public Storage,,40.735596,-73.594434,,,,,,
1235,3318,Stewart Ave at #969,,40.734754,-73.598198,,,,,,
1237,3326,Stewart Ave at New York State DOT,,40.734196,-73.6007,,,,,,
1238,3744,Hempstead Ave + Milford Pl,,40.663094,-73.645369,,,,,,
1239,3317,Stewart Ave at #845,,40.733839,-73.602392,,,,,,
1240,3304,Stewart Ave + South St,,40.733298,-73.60487,,,,,,
1241,3315,Stewart Ave at #711 (INS) EAST,,40.732776,-73.607265,,,,,,
1242,3743,Hempstead Ave + Locust Ave,,40.665404,-73.642602,,,,,,
1243,3312,Stewart Ave at #711 (INS) WEST,,40.7323,-73.609433,,,,,,
1245,3841,Stewart Ave @ Key Span(Ent RF),,40.731897,-73.611256,,,,,,
1246,3746,Hempstead Ave + Raymond St,,40.666848,-73.641495,,,,,,
1247,3745,Hempstead Ave + Pine St,,40.668283,-73.640401,,,,,,
1248,3737,Hempstead Ave + Dartmouth St,,40.669718,-73.639282,,,,,,
1249,3741,Hempstead Ave + Hamilton St,,40.671073,-73.638175,,,,,,
1250,3742,Hempstead Ave + Hayward La,,40.675588,-73.633903,,,,,,
1251,3747,Hempstead Ave + Richmond Rd,,40.676613,-73.63278,,,,,,
1252,3738,Hempstead Ave + Dogwood La,,40.678137,-73.63171,,,,,,
1253,3739,Hempstead Ave + Essex La,,40.678987,-73.631325,,,,,,
1254,3736,Hempstead Ave + Cedar St,,40.682124,-73.627682,,,,,,
1256,3835,S Franklin Ave + Dietz St,,40.688549,-73.623654,,,,,,
1257,3837,S Franklin Ave + E Marshall St,,40.689955,-73.622845,,,,,,
1258,3834,S Franklin Ave + Botsford St,,40.691933,-73.622065,,,,,,
1261,3120,S Franklin Ave + Cruikshank Ave,,40.699417,-73.623274,,,,,,
1262,6124,S Franklin Ave + Grove St,,40.702408,-73.624903,,,,,,
1263,3123,N Franklin Ave & Fulton St,,40.707773,-73.626831,,,,,,
1264,3608,Westbury Blvd + Harvard Ave,,40.715646,-73.612814,,,,,,
1267,3467,W Graham Ave + Laurel Ave,,40.696616,-73.624392,,,,,,
1268,3470,W Graham Ave + Rose Ave,,40.69567,-73.62752,,,,,,
1269,PENB0,W Graham Ave + Mason Ave,,40.694949,-73.630234,,,,,,
1270,6884,Peninsula Blvd + W Marshall St,,40.692269,-73.63208,,,,,,
1284,2405,N Village Ave & Randall Ave,,40.661148,-73.648271,,,,,,
1290,3471,W Graham Ave + Rose La,,40.695634,-73.62752,,,,,,
1292,3122,S Franklin Ave + E Graham Ave,,40.69712,-73.622165,,,,,,
1294,2120,Merrick Rd + Henry St,,40.65473,-73.5787,,,,,,
1296,2142,Merrick Rd + Mill Rd,,40.653741,-73.569901,,,,,,
1297,2098,Merrick Rd + Club House Rd,,40.65371,-73.56203,,,,,,
1298,2123,Merrick Rd + Holiday Park Shopping,,40.653823,-73.559145,,,,,,
1299,2066,Merrick Rd + Beach Dr,,40.653532,-73.556614,,,,,,
1300,6062,Merrick Rd + Babylon Tpke,,40.654217,-73.553579,,,,,,
1302,6121,Merrick Rd + Hewlett Ave,,40.657706,-73.547087,,,,,,
1303,2196,Merrick Rd + Wynsum Av,,40.658863,-73.544223,,,,,,
1304,6113,Merrick Rd + Fox Blvd,,40.660088,-73.542111,,,,,,
1305,6109,Merrick Rd + Farmers Ave,,40.661518,-73.538212,,,,,,
1306,6152,Merrick Rd + Newbridge Rd,,40.661823,-73.536151,,,,,,
1308,BMMBE,Merrick Rd + Bedford Pl,,40.663643,-73.525492,,,,,,
1310,6164,Merrick Rd Opp Riverside Dr,,40.66351,-73.517762,,,,,,
1311,2195,Merrick Rd + Woodland Ave,,40.663933,-73.513412,,,,,,
1313,2162,Merrick Rd + Pine St,,40.664871,-73.505775,,,,,,
1314,6190,Merrick Rd + Willoughby Ave,,40.665185,-73.501519,,,,,,
1315,2151,Merrick Rd + Neptune Ave,,40.665156,-73.496283,,,,,,
1316,2138,Merrick Rd + Mattituck Ave,,40.665659,-73.489739,,,,,,
1318,6185,Merrick Rd + Washington Ave,,40.666539,-73.4847,,,,,,
1319,2111,Merrick Rd + Forest Ave,,40.666739,-73.478058,,,,,,
1321,2137,Merrick Rd + Massapequa Ave,,40.666611,-73.472701,,,,,,
1322,2073,Merrick Rd + Biltmore Blvd,,40.666403,-73.465197,,,,,,
1323,2084,Merrick Rd + Cedarshore Dr.,,40.666394,-73.459114,,,,,,
1325,2187,Merrick Rd + Whitewood Dr,,40.66641,-73.453132,,,,,,
1326,2128,Merrick Rd Opp Joludow Dr,,40.66631,-73.448584,,,,,,
1327,6074,Merrick Rd + Block Blvd,,40.66649,-73.444885,,,,,,
1328,2186,Merrick Rd + Westshore Dr,,40.666642,-73.442751,,,,,,
1329,3430,Unqua Rd + Merrick Rd,,40.667602,-73.439657,,,,,,
1330,6428,Unqua Rd opp Apian Ln,,40.670155,-73.439747,,,,,,
1331,3432,Unqua Rd + Morris La,,40.672263,-73.439513,,,,,,
1332,3428,Unqua Rd + Burton La S,,40.67479,-73.439436,,,,,,
1333,3433,Unqua Rd + Sunrise Hwy,,40.67821,-73.439354,,,,,,
1335,6861,Louden Ave + County Line Dr,,40.684374,-73.425608,,,,,,
1400,3434,Unqua Rd + Sunrise Hwy,,40.678192,-73.439426,,,,,,
1401,3429,Unqua Rd opp Burton Lane,,40.674843,-73.43958,,,,,,
1402,3431,Unqua Rd opp Morris Ave,,40.672316,-73.439656,,,,,,
1403,2182,Merrick Rd + Unqua Rd,,40.667439,-73.440073,,,,,,
1404,2183,Merrick Rd opp West Shore Rd,,40.666767,-73.442704,,,,,,
1406,2188,Merrick Rd Opp Whitewood Dr,,40.666631,-73.451744,,,,,,
1408,2130,Merrick Rd + Lake Shore Blvd,,40.666622,-73.466189,,,,,,
1409,2169,Merrick Rd + Roxbury La,,40.666768,-73.47349,,,,,,
1410,2122,Merrick Rd + Hicksville Rd,,40.666838,-73.475936,,,,,,
1411,2112,Merrick Rd + Forest Ave,,40.66689,-73.47825,,,,,,
1412,2181,Merrick Rd Opp Townsend Rd,,40.666808,-73.482603,,,,,,
1413,2177,Merrick Rd + Seamans Neck Rd,,40.665801,-73.489978,,,,,,
1414,2176,Merrick Rd + Seaford Ave,,40.665306,-73.496725,,,,,,
1415,2110,Merrick Rd + Fir St,,40.66499,-73.506933,,,,,,
1416,2067,Merrick Rd + Bellmore Ave,,40.664487,-73.522601,,,,,,
1417,2085,Merrick Rd + Bedford Ave,,40.663766,-73.525756,,,,,,
1418,2059,Merrick Rd + Argyle Pl,,40.662238,-73.533459,,,,,,
1419,2089,Merrick Rd + Central Pkwy,,40.653752,-73.557272,,,,,,
1420,2197,Merrick Rd + Wynsum Ave,,40.658915,-73.544534,,,,,,
1422,2088,Merrick Rd + Central Blvd,,40.654123,-73.563322,,,,,,
1423,2078,Merrick Rd + Buffalo Ave,,40.65396,-73.570714,,,,,,
1424,2132,Merrick Rd + Liberty Ave,,40.654689,-73.574728,,,,,,
1429,2646,Northern Blvd + Forest Drive,,40.807637,-73.633481,,,,,,
1432,2300,N Broadway + 16th St,,40.779203,-73.530998,,,,,,
1440,2304,Newbridge Rd & Kingston Ave,,40.758055,-73.529834,,,,,,
1442,2309,N Broadway Opp Scott Dr,,40.781332,-73.531901,,,,,,
1443,2706,Northern Blvd at New York Tech,,40.815686,-73.607339,,,,,,
1444,2660,Northern Blvd Opp Marion St,,40.811207,-73.622809,,,,,,
1446,2689,Northern Blvd + Walnut St,,40.81081,-73.625004,,,,,,
1449,2655,Northern Blvd + Little Neck Parkway,,40.770663,-73.735513,,,,,,
1450,2667,Northern Blvd + Museum Rd,,40.807797,-73.633579,,,,,,
1451,6656,Northern Blvd + Marathon Pkwy,,40.768248,-73.737456,,,,,,
1452,2676,Northern Blvd Opp Sinclair MartinDr,,40.804831,-73.643217,,,,,,
1453,6625,Northern Blvd + 248th St,,40.766772,-73.739195,,,,,,
1454,314,Bryant Av + under Northern Bvd Viad,,40.804284,-73.646725,,,,,,
1455,6624,Northern Blvd + 244th St,,40.765487,-73.741879,,,,,,
1456,308,Bryant Ave Opp Hillcrest Ave,,40.801424,-73.647185,,,,,,
1457,6643,Northern Blvd+Douglaston Pky- 243rd,,40.765289,-73.743477,,,,,,
1459,2595,Northern Blvd  Opp  Alameda Ave,,40.764906,-73.745945,,,,,,
1461,2623,Northern Blvd Opp 232nd St,,40.764249,-73.748171,,,,,,
1462,2664,Northern Blvd + Middle Neck Rd,,40.798498,-73.663395,,,,,,
1463,6621,Northern Blvd + 223rd St,,40.761884,-73.75869,,,,,,
1464,2670,Northern Blvd + Port Washington Blv,,40.797251,-73.668891,,,,,,
1465,2620,Northern Blvd + 221st St,,40.761756,-73.760456,,,,,,
1467,2618,Northern Blvd + 219th St,,40.761328,-73.763019,,,,,,
1469,6617,Northern Blvd + 217th St,,40.760898,-73.76459,,,,,,
1470,2666,Northern Blvd + Munsey Park School,,40.795071,-73.68096,,,,,,
1471,2615,Northern Blvd + 215th Pl,,40.760741,-73.766655,,,,,,
1472,2658,Northern Blvd + Manhasset Woods Rd,,40.794695,-73.68392,,,,,,
1473,2627,Northern Blvd + Francis Lewis Blvd,,40.757759,-73.783602,,,,,,
1474,2695,Northern Blvd at #1615,,40.794365,-73.686903,,,,,,
1475,2614,Northern Blvd + 212th St,,40.759861,-73.771314,,,,,,
1476,2657,North.Bvd +Manhasset Med Ctr #1554,,40.793956,-73.689492,,,,,,
1477,2639,Northern Blvd + Corporal Kennedy St,,40.759174,-73.773862,,,,,,
1478,2680,Northern Blvd + Strathmore Rd,,40.793673,-73.691974,,,,,,
1479,2635,Northern Blvd + Clearview Expway,,40.758331,-73.777112,,,,,,
1480,2678,Northern Blvd Opp St Marys,,40.792991,-73.69689,,,,,,
1481,6612,Northern Blvd + 204th St,,40.757593,-73.779181,,,,,,
1483,2692,Northern Blvd Opp Westminster Rd,,40.77475,-73.731798,,,,,,
1484,6611,Northern Blvd + 202nd St,,40.757518,-73.781056,,,,,,
1485,2629,Northern Blvd & Maple St (oppMacys),,40.789603,-73.704547,,,,,,
1489,2665,Northern Blvd + Morgan St,,40.771884,-73.734488,,,,,,
1490,6610,Northern Blvd + 196th St,,40.757879,-73.785658,,,,,,
1492,2609,Northern Blvd + 194th St,,40.757857,-73.787581,,,,,,
1493,6683,Northern Blvd Opp Susquehanna Ave,,40.784029,-73.712084,,,,,,
1494,2607,Northern Blvd + 192 St,,40.757986,-73.789649,,,,,,
1496,2605,Northern Blvd + 189th St,,40.757905,-73.792275,,,,,,
1497,2224,Middle Neck Rd + Brompton Rd,,40.784935,-73.72256,,,,,,
1498,2604,Northern Blvd + 172nd St,,40.757865,-73.794138,,,,,,
1506,3165,Sanford Ave + 165th St,,40.759958,-73.801294,,,,,,
1508,6163,Sanford Ave + 162nd St,,40.760261,-73.803962,,,,,,
1509,2598,Northern Blvd Opp Sussex Rd,,40.781048,-73.71886,,,,,,
1510,6162,Sanford Ave + 160th St,,40.760605,-73.805829,,,,,,
1511,6690,Northern Blvd + Wensley Dr,,40.779909,-73.721069,,,,,,
1512,6161,Sanford Ave + 158th St,,40.760931,-73.807637,,,,,,
1513,2662,Northern Blvd + Merrivale Rd,,40.778836,-73.72396,,,,,,
1514,6160,Sanford Ave + 156th St,,40.761222,-73.809456,,,,,,
1515,2697,Northern Blvd at #277,,40.777542,-73.726681,,,,,,
1516,6169,Sanford Ave + Murray St,,40.76106,-73.812165,,,,,,
1517,6652,Northern Blvd + Jayson Ave,,40.775809,-73.7296,,,,,,
1519,6158,Sanford Ave + 149th St,,40.760308,-73.814915,,,,,,
1520,3157,Sanford Ave + 147th St,,40.759703,-73.8172,,,,,,
1521,6170,Sanford Ave + Parsons Blvd,,40.75874,-73.820711,,,,,,
1530,3167,Sanford Ave + Bowne St,,40.758134,-73.822985,,,,,,
1531,3164,Sanford Ave + 165th St,,40.759771,-73.801185,,,,,,
1532,2600,Northern Blvd + 168th St,,40.75896,-73.798463,,,,,,
1534,2628,Northern Blvd + Auburndale Lane,,40.757699,-73.794864,,,,,,
1535,2688,Northern Blvd & Utopia Pkwy,,40.757721,-73.793001,,,,,,
1536,2606,Northern Blvd Opp 190th St,,40.757787,-73.791199,,,,,,
1537,2608,Northern Blvd + 192nd St,,40.757826,-73.789432,,,,,,
1538,2634,Northern Blvd + Clearview Expresswa,,40.758234,-73.776884,,,,,,
1539,2640,Northern Blvd Opp CorporalKennedySt,,40.759069,-73.773574,,,,,,
1540,2613,Northern Blvd + 211th St,,40.759573,-73.771633,,,,,,
1541,2616,Northern Blvd + 215th St,,40.760459,-73.767392,,,,,,
1542,2677,Northern Blvd + Springfield Blvd,,40.761205,-73.762755,,,,,,
1543,2619,Northern Blvd + 220th Pl,,40.761549,-73.760716,,,,,,
1545,2700,Northern Blvd at Alley Pond 227thSt,,40.763205,-73.752065,,,,,,
1546,2622,Northern Blvd + 232nd St,,40.76396,-73.748634,,,,,,
1547,2626,Northern Blvd + Alameda Ave,,40.764837,-73.745634,,,,,,
1548,2632,Northern Blvd + Brownvale Ave,,40.769677,-73.736075,,,,,,
1550,2633,Northern Blvd + Buttonwood Rd,,40.774229,-73.732198,,,,,,
1551,2651,Northern Blvd + Hereford Rd,,40.7774,-73.72656,,,,,,
1552,2661,Northern Blvd + Merrivale Rd,,40.778622,-73.724005,,,,,,
1553,2684,Northern Blvd + Sussex Rd,,40.780906,-73.718751,,,,,,
1554,2216,Middle Neck Rd + Northern Blvd,,40.782016,-73.716816,,,,,,
1556,2653,Northern Blvd + Middle Neck Rd.,,40.781999,-73.716684,,,,,,
1558,2636,Northern Blvd + Community Dr,,40.788175,-73.705858,,,,,,
1559,2699,Northern Blvd at Macys,,40.789876,-73.703833,,,,,,
1560,2669,Northern Blvd + Pickwick Rd,,40.794506,-73.684192,,,,,,
1561,2691,Northern Blvd + West Dr,,40.790741,-73.702481,,,,,,
1562,2645,Northern Blvd + East Gate Rd,,40.794882,-73.681137,,,,,,
1565,2679,Northern Blvd Opp Strathmore La,,40.793503,-73.692056,,,,,,
1567,2642,Northern Blvd + Deepdale Dr,,40.794102,-73.687498,,,,,,
1569,2675,Northern Blvd + Searingtown Rd,,40.797254,-73.668401,,,,,,
1570,2685,Northern Blvd + The Locusts,,40.798347,-73.663286,,,,,,
1571,2834,Old Northern Blvd + Mineola Ave,,40.79954,-73.659319,,,,,,
1572,291,Broadway/Bryant Ave + Remsen Ave,,40.801496,-73.646971,,,,,,
1574,891,Glen Cove Ave + Charles St,,40.861391,-73.634173,,,,,,
1575,906,Glen Cove Ave Opp Shore Rd,,40.857162,-73.635075,,,,,,
1576,889,Glen Cove Ave + Burns Ave,,40.854933,-73.63449,,,,,,
1577,905,Glen Cove Ave + Sea Cliff Ave,,40.850641,-73.635487,,,,,,
1578,881,Glen Ave + Glen Cove Ave,,40.849175,-73.635699,,,,,,
1579,883,Glen Ave Opp Locust Ave,,40.84851,-73.638024,,,,,,
1580,878,Glen Ave + Carpenter Ave,,40.847821,-73.641306,,,,,,
1581,887,Glen Ave + Roslyn Ave,,40.847113,-73.644826,,,,,,
1582,880,Glen Ave + Central Ave,,40.846398,-73.648059,,,,,,
1583,886,Glen Ave + Prospect Ave,,40.844788,-73.651558,,,,,,
1584,2957,Prospect Ave Opp Laurel Ave,,40.842243,-73.653158,,,,,,
1585,2960,Prospect Ave Opp Littleworth La,,40.838326,-73.652591,,,,,,
1586,3200,Shore Rd Opp N.Shore CountryClubEnt,,40.833611,-73.649504,,,,,,
1587,3194,Shore Rd Opp Glenwood Rd,,40.828897,-73.647829,,,,,,
1589,954,Glenwood Rd Opp Engineers Club,,40.818678,-73.643719,,,,,,
1591,6310,Bryant Ave + Montrose Ct,,40.814756,-73.64559,,,,,,
1592,6311,Bryant Ave + Summit Ave,,40.80625,-73.646423,,,,,,
1593,313,Bryant Av+WitteLa(NorthBvdViaduct),,40.804275,-73.646677,,,,,,
1595,2956,Prospect Ave + Laurel Ave,,40.842333,-73.652955,,,,,,
1596,953,Glenwood Rd + Engineers Country Clu,,40.819982,-73.643624,,,,,,
1597,885,Glen Ave + Locust Pl,,40.844844,-73.651128,,,,,,
1598,955,Glenwood Rd + Scudder La,,40.824507,-73.642571,,,,,,
1599,879,Glen Ave + Cedar Pl,,40.845752,-73.648603,,,,,,
1600,3195,Shore Rd + Glenwood Rd,,40.8288,-73.647553,,,,,,
1601,3198,Shore Rd + North Shore Country Club,,40.833871,-73.649328,,,,,,
1602,2959,Prospect Ave + Littleworth La,,40.838461,-73.652413,,,,,,
1603,882,Glen Ave + Glen Cove Ave,,40.849024,-73.635602,,,,,,
1604,904,Glen Cove Ave + Sea Cliff Ave,,40.850445,-73.635281,,,,,,
1605,902,Glen Cove Ave + Ralph W Young Ave,,40.854809,-73.63425,,,,,,
1606,892,Glen Cove Ave + Charles St,,40.861214,-73.63398,,,,,,
1611,3482,W John St + Wycoff St,,40.768639,-73.529234,,,,,,
1612,6671,Jericho Tpke + Sheridan Blvd,,40.75368,-73.628047,,,,,,
1613,3479,W John St + Marion Pl,,40.767992,-73.53182,,,,,,
1615,6473,W John St + Burns Ave,,40.767311,-73.535935,,,,,,
1616,6620,Jericho Tpke + Columbus Pkwy,,40.752463,-73.631653,,,,,,
1617,3481,W John St + Engel St.,,40.766846,-73.537938,,,,,,
1618,1663,Jericho Tpke + Sheridan Blvd.,,40.75351,-73.628045,,,,,,
1619,935,East Gate Blvd. & Zeckendorf Blvd.,,40.739715,-73.60553,,,,,,
1620,3477,W John St Opp Kuhl Ave.,,40.766321,-73.54117,,,,,,
1621,3028,Roslyn Rd + Charles St,,40.754555,-73.634254,,,,,,
1622,924,Glen Cove Rd + Voice Rd,,40.747685,-73.617597,,,,,,
1623,3484,W John St & Alpha Plaza,,40.76559,-73.546383,,,,,,
1624,3627,Willis Ave + Pomander Rd,,40.751473,-73.642391,,,,,,
1625,3030,Roslyn Rd + Ogden Ave.,,40.75659,-73.634573,,,,,,
1626,932,Glen Cove Rd + Westbury Ave,,40.74945,-73.617985,,,,,,
1627,3474,W John St + Charlotte Ave,,40.765305,-73.547838,,,,,,
1628,3642,Willis Ave + Ferncroft Rd,,40.75327,-73.643449,,,,,,
1630,919,Glen Cove Rd & Jerome Ave,,40.752081,-73.618561,,,,,,
1631,2975,Prospect Ave at #1200,,40.763234,-73.55661,,,,,,
1632,3625,Willis Ave + Canterbury Ave,,40.754748,-73.644276,,,,,,
1633,2946,Prospect Ave + Pearl St.,,40.763157,-73.557649,,,,,,
1635,1554,Hillside Ave + Pennsylvania AveEWil,,40.757676,-73.63984,,,,,,
1636,6943,Prospect Ave + New York Ave,,40.762969,-73.561242,,,,,,
1637,1551,Hillside Ave + Post La.,,40.757979,-73.638326,,,,,,
1639,2954,Prospect Ave + Kinkel Ave,,40.762639,-73.562983,,,,,,
1640,1495,Hillside Ave  Opp  Cross St.,,40.757123,-73.642832,,,,,,
1641,2969,Prospect Ave + Swalm Ave,,40.762384,-73.56568,,,,,,
1642,6534,Hillside Ave + Liberty Ave,,40.754383,-73.651784,,,,,,
1643,6961,Prospect Ave + Magnolia Ave,,40.762299,-73.568259,,,,,,
1644,1542,Hillside Ave + Mineola Blvd.,,40.755344,-73.64771,,,,,,
1645,6967,Prospect Ave + Sheridan St,,40.762,-73.570908,,,,,,
1646,6515,Hillside Ave + Herricks Rd,,40.753382,-73.65796,,,,,,
1648,1548,Hillside Ave + Burkhard Ave,,40.754881,-73.649102,,,,,,
1653,2965,Prospect Ave + Wright St.,,40.761552,-73.57457,,,,,,
1654,1513,Hillside Ave Opp James St.,,40.752545,-73.663636,,,,,,
1655,1927,Maple Ave + Linden Ave,,40.756149,-73.58485,,,,,,
1656,1507,Hillside Ave + Park West,,40.752204,-73.666869,,,,,,
1658,1493,Hillside Ave Opp Dail St.,,40.751913,-73.669266,,,,,,
1659,6924,Maple Ave + Grand St,,40.755414,-73.590468,,,,,,
1661,1932,Maple Ave + Manor Ave.,,40.754749,-73.59291,,,,,,
1662,1490,Hillside Ave Opp  Aster Dr,,40.751124,-73.675754,,,,,,
1663,3603,Westbury Ave + Ellison Ave,,40.753809,-73.596544,,,,,,
1664,6540,Hillside Ave + Manor Ct,,40.750741,-73.680037,,,,,,
1665,6604,Westbury Ave + Longwood Ave,,40.752973,-73.599402,,,,,,
1667,3599,Westbury Ave + Carle Rd,,40.751887,-73.601947,,,,,,
1668,1524,Hillside Ave opp Kent Rd.,,40.749014,-73.683601,,,,,,
1671,447,Cherry La + Westbury Ave.,,40.750957,-73.605437,,,,,,
1672,1512,Hillside Ave + Kamda Blvd.,,40.74609,-73.688644,,,,,,
1673,451,Cherry La + Garden Ave.,,40.747893,-73.605753,,,,,,
1675,450,Cherry La + Lanie Pl,,40.745284,-73.60611,,,,,,
1676,1514,Hillside Ave + Stephen Ave.,,40.744304,-73.691646,,,,,,
1678,6531,Hillside Ave + Lakeville Rd,,40.743264,-73.693688,,,,,,
1683,6474,Hillside Ave + 268th St,,40.738932,-73.701139,,,,,,
1685,1471,Hillside Ave &  Argyle St.,,40.75384,-73.654525,,,,,,
1687,6469,Hillside Ave + 264th St,,40.738132,-73.704795,,,,,,
1688,6467,Hillside Ave + 261st St,,40.737535,-73.707547,,,,,,
1689,6463,Hillside Ave + 258th St,,40.736973,-73.710227,,,,,,
1690,1461,Hillside Ave + 259th St,,40.737034,-73.709117,,,,,,
1691,6537,Hillside Ave + Little Neck Pkwy,,40.736145,-73.714014,,,,,,
1692,1457,Hillside Ave + 251st St,,40.735541,-73.716324,,,,,,
1694,6451,Hillside Ave + 247th St,,40.734821,-73.720065,,,,,,
1695,2809,Old Country Rd + County Seat Dr,,40.739417,-73.636404,,,,,,
1696,6497,Hillside Ave + Commonwealth Blvd,,40.73449,-73.721625,,,,,,
1698,2239,Mineola Blvd + 2nd St,,40.741671,-73.640415,,,,,,
1700,6240,Mineola Blvd + Garfield Ave,,40.744682,-73.64164,,,,,,
1701,6499,Hillside Ave + Creedmore Hospital,,40.732672,-73.730738,,,,,,
1702,6243,Mineola Blvd + Jackson Ave,,40.746364,-73.642601,,,,,,
1703,6557,Hillside Ave opp Range St,,40.733184,-73.733024,,,,,,
1704,2243,Mineola Blvd + Garfield Ave.,,40.744485,-73.641782,,,,,,
1705,6568,Hillside Ave + Winchester Blvd,,40.733501,-73.735129,,,,,,
1706,3640,Willis Ave + Banbury St.,,40.750031,-73.641576,,,,,,
1708,1444,Hillside Ave + 256th St,,40.736473,-73.711702,,,,,,
1709,6440,Hillside Ave + 229th St,,40.73242,-73.74074,,,,,,
1711,6561,Hillside Ave + Springfield Blvd,,40.72999,-73.744902,,,,,,
1712,6481,Hillside Ave + 218th St,,40.728539,-73.74701,,,,,,
1713,6477,Hillside Ave + 215th Pl,,40.727157,-73.749369,,,,,,
1714,1475,Hillside Ave + 214th St,,40.725953,-73.751922,,,,,,
1716,6483,Hillside Ave + 211th St,,40.723722,-73.755751,,,,,,
1717,6437,Hillside Ave + 209th St,,40.72255,-73.757384,,,,,,
1723,1488,Hillside Ave + Manor Blvd,,40.731119,-73.742957,,,,,,
1724,1443,Hillside Ave + 232nd St,,40.733349,-73.737873,,,,,,
1725,1448,Hillside Ave + 241st St.,,40.733661,-73.725627,,,,,,
1726,3749,Hillside Ave & 243rd St.,,40.734047,-73.723817,,,,,,
1728,1465,Hillside Ave + 251st St,,40.73563,-73.716373,,,,,,
1731,1516,Hillside Ave + Stewart Ave.,,40.740195,-73.699087,,,,,,
1732,1549,Hillside Ave opp 4th St.,,40.741521,-73.696964,,,,,,
1733,1562,Hillside Ave + Haddon Rd.,,40.744112,-73.692241,,,,,,
1734,1535,Hillside Ave + Garden Ct.,,40.745628,-73.689666,,,,,,
1738,1397,Hillside + Aster Dr,,40.751275,-73.675935,,,,,,
1741,1522,Hillside Ave + Kent St.,,40.752763,-73.662993,,,,,,
1743,1489,Hillside Ave + Brunswick Ave,,40.753835,-73.655373,,,,,,
1744,1494,Hillside Ave + Campbell Ave.,,40.755115,-73.648746,,,,,,
1745,1547,Hillside Ave + Park Ave.,,40.755715,-73.646925,,,,,,
1747,3621,Willis Ave + Custer Ave.,,40.754447,-73.643855,,,,,,
1748,3629,Willis Ave + McClellan Ave.,,40.753157,-73.643077,,,,,,
1749,1553,Hillside Ave Opp Pennslyvania Ave,,40.757773,-73.63996,,,,,,
1750,3646,Willis Ave + Ellsworth Ave,,40.751323,-73.642055,,,,,,
1752,3616,Willis Ave + Jericho Tpke,,40.749356,-73.64096,,,,,,
1753,3045,Roslyn Rd + Coleman Dr.,,40.756903,-73.634362,,,,,,
1754,2242,Mineola Blvd + Washington Ave.,,40.747796,-73.643523,,,,,,
1755,3027,Roslyn Rd + Charles St,,40.754682,-73.634028,,,,,,
1756,1664,Jericho Tpke + Columbus Pky,,40.752212,-73.631854,,,,,,
1757,2238,Mineola Blvd + 2nd St,,40.741708,-73.640201,,,,,,
1758,1614,Jericho Tpke + Congress Ave.,,40.753254,-73.629082,,,,,,
1760,JYCT3,Jericho Tpke + Jay Ct,,40.75589,-73.622576,,,,,,
1761,918,Glen Cove Rd & Jerome Ave,,40.752003,-73.61819,,,,,,
1762,4026,Old Country Rd & Willis Ave,,40.73977,-73.63562,,,,,,
1763,933,Glen Cove Rd + Westbury Blvd,,40.749202,-73.61766,,,,,,
1764,931,Glen Cove Rd Opp Voice Rd,,40.747498,-73.617404,,,,,,
1765,2737,Old Country Rd + Glen Cove Rd.,,40.74298,-73.617407,,,,,,
1766,449,Cherry La + Lansdowne Ave,,40.7453,-73.606325,,,,,,
1767,448,Cherry La + Mallard Rd.,,40.747909,-73.605968,,,,,,
1768,452,Cherry La + Broadway,,40.750394,-73.605634,,,,,,
1769,3600,Westbury Ave + Carle Rd,,40.751957,-73.60227,,,,,,
1771,1928,Maple Ave + St. Brigid's La.,,40.75483,-73.592684,,,,,,
1772,1926,Maple Ave + Linden Ave,,40.756231,-73.584612,,,,,,
1776,2972,Prospect Ave + Brush Hollow Rd.,,40.761649,-73.574786,,,,,,
1777,2970,Prospect Ave + Swalm St,,40.762545,-73.565705,,,,,,
1778,2955,Prospect Ave + Kinkel St,,40.7628,-73.563008,,,,,,
1779,2966,Prospect Ave + E. Broadway,,40.763218,-73.558079,,,,,,
1780,2974,Prospect Ave @ Nass Tech Ct (BOCES),,40.764498,-73.552202,,,,,,
1781,3475,W John St  Opp Charlotte Ave,,40.765394,-73.547934,,,,,,
1782,3472,W John St @ Cantiague Park,,40.7659,-73.544977,,,,,,
1783,3478,W John St + Kuhl Ave.,,40.766474,-73.541028,,,,,,
1784,3476,W John St + Myers Ave.,,40.766878,-73.538762,,,,,,
1785,3480,W John St + Maple Pl.,,40.767989,-73.532453,,,,,,
1786,3483,W John St + Wyckoff St,,40.768952,-73.529057,,,,,,
1787,1866,Main St + Central Dr.,,40.830522,-73.691907,,,,,,
1788,3648,Willis Ave + Searing Ave,,40.744701,-73.638357,,,,,,
1789,6641,Willis Ave + Lincoln Ave,,40.746675,-73.639715,,,,,,
1791,3197,Shore Rd Opp Manhasset Ave,,40.841422,-73.70612,,,,,,
1793,1917,Manorhaven Blvd + Ashwood St,,40.842726,-73.708873,,,,,,
1794,3626,Willis Ave + Dartmouth St,,40.760207,-73.645348,,,,,,
1795,6918,Manorhaven Blvd Opp Dunwood St,,40.841638,-73.711527,,,,,,
1796,6919,Manorhaven Blvd Opp Graywood St,,40.840675,-73.714123,,,,,,
1797,3649,Willis Ave + Syracuse St,,40.764244,-73.646644,,,,,,
1798,6920,Manorhaven Blvd Opp Inwood St,,40.840378,-73.715878,,,,,,
1799,3618,Willis Ave + Bethel Rd,,40.766135,-73.647093,,,,,,
1800,3802,Manorhaven Blvd + Kirkwood Rd,,40.840509,-73.71778,,,,,,
1801,3624,Willis Ave + Coventry Ave,,40.769325,-73.648094,,,,,,
1803,3638,Willis Ave + I U Willets Rd,,40.770957,-73.648565,,,,,,
1804,6619,Willis Ave + Beverly Dr,,40.772935,-73.649314,,,,,,
1805,3643,Willis Ave + Netz Pl,,40.774915,-73.649717,,,,,,
1806,3651,Willis Ave + Yale St,,40.77802,-73.650084,,,,,,
1807,3647,Willis Ave + Princeton St,,40.780801,-73.649432,,,,,,
1808,3632,Willis Ave + Gateway,,40.782901,-73.649215,,,,,,
1809,2234,Mineola Ave + Old Powerhouse Rd,,40.78544,-73.648716,,,,,,
1810,2236,Mineola Ave + Villa Pl,,40.788312,-73.650789,,,,,,
1811,3544,Warner Ave + Mineola Ave,,40.790907,-73.652823,,,,,,
1812,3543,Warner Ave + Jefferson Ave,,40.791454,-73.64787,,,,,,
1814,1868,Main St + E Broadway,,40.794705,-73.646219,,,,,,
1817,2833,Old Northern Blvd + Mineola Ave,,40.799611,-73.659356,,,,,,
1818,2908,Port Wash Blvd + Bayberry Ridge,,40.800805,-73.668785,,,,,,
1819,2920,Port Wash Blvd + Middleneck Rd,,40.805068,-73.668197,,,,,,
1820,2916,Port Washington Blvd + Farmview Rd,,40.806838,-73.669388,,,,,,
1821,2913,Port Wash Blvd & Country Club Dr,,40.810118,-73.676403,,,,,,
1822,2921,Port Wash Blvd @ N Hemp CountryClub,,40.813349,-73.679689,,,,,,
1823,2925,Port Washington Blvd + Wakefield Av,,40.816035,-73.679993,,,,,,
1824,2917,Port Washington Blvd + Hawthorne Av,,40.818312,-73.679934,,,,,,
1825,2912,Port Washington Blvd + Colonial Ave,,40.82169,-73.680927,,,,,,
1826,2915,Port Washington Blvd + Fairview Ave,,40.82469,-73.682466,,,,,,
1827,2911,Port Washington Blvd + Campus Dr,,40.828925,-73.683659,,,,,,
1828,1894,Main St + Port Washington Blvd,,40.830902,-73.684518,,,,,,
1830,1884,Main St Opp Madison Ave,,40.830977,-73.694215,,,,,,
1831,1896,Main St Opp Washington St,,40.831576,-73.697007,,,,,,
1832,3193,Shore Rd + Columbia Pl,,40.833082,-73.698961,,,,,,
1833,3196,Shore Rd + Harbor Rd,,40.835352,-73.700014,,,,,,
1834,3199,Shore Rd + Pleasant Ave,,40.839506,-73.70409,,,,,,
1836,1921,Manorhaven Blvd Opp Kirkwood St,,40.840322,-73.717754,,,,,,
1837,3545,Warner Ave @ #275,,40.791946,-73.644637,,,,,,
1838,3542,Warner Ave + Edward St,,40.791653,-73.647418,,,,,,
1839,2233,Mineola Ave + Garden St,,40.790193,-73.652756,,,,,,
1840,1922,Manorhaven Blvd +  Shore Rd,,40.842802,-73.70824,,,,,,
1841,2509,New Shore Rd + Manhasset Ave,,40.84134,-73.706347,,,,,,
1842,2510,New Shore Rd Opp Pleasant Ave,,40.839247,-73.704135,,,,,,
1843,2508,Shore Rd Opp Harbor Rd,,40.835359,-73.700337,,,,,,
1844,2507,Shore Rd Opp Central Dr,,40.833831,-73.699136,,,,,,
1845,1881,Main St Opp Library Dr,,40.831309,-73.696705,,,,,,
1846,1885,Main St + Madison St,,40.830833,-73.694369,,,,,,
1847,1883,Main St + Mackey Ave,,40.830272,-73.691218,,,,,,
1850,2918,Port Washington Blvd + Maple St,,40.830243,-73.684164,,,,,,
1851,2923,PortWashingtonBlvd+ VanderventerAve,,40.82854,-73.683787,,,,,,
1852,2909,Port Washington Blvd+ Beechwood Rd,,40.824725,-73.682717,,,,,,
1853,3622,Willis Ave + Center St,,40.760169,-73.64561,,,,,,
1854,2914,Port Washington Blvd + Derby Rd,,40.821119,-73.680873,,,,,,
1855,2919,Port Washington Blvd + Marine Ave,,40.817802,-73.680048,,,,,,
1857,2924,Port Wash Blvd @Vincent SmithSchool,,40.814051,-73.68027,,,,,,
1858,2910,Port WashBlvd + Bonnie Heights Rd,,40.809786,-73.676638,,,,,,
1859,2922,Port Wash Blvd @ St FrancisHospital,,40.804969,-73.668399,,,,,,
1861,2907,Port Wash Blvd Opp Bayberry Ridge,,40.801053,-73.66923,,,,,,
1863,3623,Willis Ave + Cleveland Ave,,40.744717,-73.638632,,,,,,
1868,1871,Main St Opp entrance to Roslyn Park,,40.796995,-73.648704,,,,,,
1869,2237,Mineola Ave + Woodward St,,40.78768,-73.650448,,,,,,
1870,2235,Mineola Ave + Old Powerhouse Rd,,40.785411,-73.648978,,,,,,
1871,3633,Willis Ave Opp Gateway,,40.782792,-73.649429,,,,,,
1872,3644,Willis Ave Opp Oxford St,,40.780093,-73.649807,,,,,,
1873,3637,Willis Ave + Hillturn La,,40.778877,-73.650069,,,,,,
1874,3631,Willis Ave + Garden Dr,,40.774905,-73.64992,,,,,,
1875,3645,Willis Ave + Park Lane Dr,,40.77141,-73.648928,,,,,,
1876,3650,Willis Ave + Walker Pl,,40.76977,-73.648457,,,,,,
1877,3628,Willis Ave + Evans Ave,,40.766276,-73.64737,,,,,,
1878,3635,Willis Ave + Henry St,,40.763735,-73.646734,,,,,,
1879,3630,Willis Ave + Franklin St,,40.762353,-73.646385,,,,,,
1883,939,G Curtiss Bvd OppReckson Pl. S Entr,,40.718254,-73.583177,,,,,,
1884,938,G Curtiss Bvd Opp Reckson Pl N Entr,,40.719018,-73.587183,,,,,,
1887,595,E Ovington Blvd Opp Coliseum Park,,40.7205,-73.593882,,,,,,
1889,446,Chas Lindbergh Bvd &WestburyBvd #55,,40.722404,-73.603307,,,,,,
1890,2979,Quentin Roos Blvd @ Commercial Ave,,40.729798,-73.604943,,,,,,
1898,6633,Jericho Tpke + Horton Hwy,,40.747684,-73.645958,,,,,,
1899,6644,Jericho Tpke + Marcellus Rd,,40.747048,-73.64791,,,,,,
1900,6626,Jericho Tpke + Emory Rd,,40.74583,-73.651575,,,,,,
1901,1675,Jericho Tpke + Beebe Rd,,40.744615,-73.654703,,,,,,
1902,6629,Jericho Tpke + Herricks Rd,,40.743803,-73.657644,,,,,,
1903,1645,Jericho Tpke + County Courthouse Rd,,40.742287,-73.66041,,,,,,
1904,1649,Jericho Tpke + Mineola Blvd.,,40.748284,-73.644138,,,,,,
1905,1616,Jericho Tpke + Sixth Ave,,40.739205,-73.666623,,,,,,
1906,1657,Jericho Tpke + Old Broadway,,40.738048,-73.668974,,,,,,
1907,6623,Jericho Tpke + Denton Ave,,40.737042,-73.671471,,,,,,
1908,1641,Jericho Tpke + Nassau Terminal Rd.,,40.736086,-73.673025,,,,,,
1909,6632,Jericho Tpke Opp Hoffman Rd,,40.73459,-73.676746,,,,,,
1911,1634,Jericho Tpke + Miller La,,40.733001,-73.682543,,,,,,
1912,1640,Jericho Tpke + S. 10th St.,,40.732366,-73.685664,,,,,,
1913,1630,Jericho Tpke + S. 4th St.,,40.731254,-73.690798,,,,,,
1914,1652,Jericho Tpke + S. 2nd St,,40.730914,-73.692477,,,,,,
1915,1646,Jericho Tpke + Lewis Ave.,,40.730499,-73.694478,,,,,,
1916,1670,Jericho Tpke + Linden Ave,,40.729947,-73.697206,,,,,,
1918,1625,Jericho Tpke + Plainfield Ave,,40.729503,-73.699661,,,,,,
1919,1631,Jericho Tpke + Park Pl.,,40.728989,-73.701864,,,,,,
1921,1639,Jericho Tpke + Garfield Ave,,40.727783,-73.707616,,,,,,
1922,1609,Jericho Tpke/Jamaica Ave + Tulip Av,,40.727313,-73.71007,,,,,,
1923,1593,Jericho Tpke/Jamaica Ave + Penn Blv,,40.726553,-73.715756,,,,,,
1926,1592,Jericho Tpke/Jamaica Ave + 246th St,,40.724903,-73.722494,,,,,,
1928,1591,Jericho Tpke/Jamaica Ave + 240th St,,40.723399,-73.7273,,,,,,
1929,1590,Jericho Tpke/Jamaica Ave + 225th St,,40.722166,-73.730198,,,,,,
1931,6589,Jamaica Ave + 224th St,,40.72165,-73.731231,,,,,,
1932,6588,Jamaica Ave + 222nd St,,40.720446,-73.732447,,,,,,
1933,6613,Jamaica Ave + Springfield Blvd,,40.718544,-73.73523,,,,,,
1936,6600,Jamaica Ave + 215th St,,40.717123,-73.740859,,,,,,
1937,1599,Jamaica Ave Opp 214th Pl,,40.716556,-73.742929,,,,,,
1938,1595,Jamaica Ave + 213th St.,,40.716151,-73.744787,,,,,,
1944,GCCR0,Quentin Roosevelt Blvd + Commercial,,40.729764,-73.604525,,,,,,
1947,596,Earle Ovington @ Coliseum Parking L,,40.720592,-73.593394,,,,,,
1949,1311,Hempstead Tpke Opp Walton Ave,,40.718671,-73.591919,,,,,,
1950,936,Glenn Curtiss @ Reckson Pl. N Entra,,40.718887,-73.586693,,,,,,
1951,594,Glenn Curtiss @ Reckson Pl. S Entra,,40.718539,-73.581592,,,,,,
1952,1598,Jamaica Ave + 212th Place,,40.716019,-73.745752,,,,,,
1953,1586,Jamaica Ave + 214th Pl,,40.716626,-73.743109,,,,,,
1954,1587,Jamaica Ave + 218th St,,40.717916,-73.737025,,,,,,
1956,1684,Jamaica Ave + 239th St,,40.723223,-73.728277,,,,,,
1957,1685,Jamaica Ave + 246th St,,40.725164,-73.722211,,,,,,
1958,1686,Jamaica Ave + 91st Ave,,40.725621,-73.720485,,,,,,
1959,1682,Jamaica Av + Commonwealth Blvd,,40.726161,-73.718414,,,,,,
1960,1687,Jamaica Ave + 250th St,,40.726854,-73.714864,,,,,,
1961,1688,Jamaica Ave + Little Neck Pkwy,,40.727417,-73.710513,,,,,,
1962,1627,Jericho Tpke + Keene Ave.(257 ST),,40.727944,-73.707666,,,,,,
1964,1658,Jericho Tpke + Hinsdale Ave.,,40.729021,-73.70252,,,,,,
1965,1661,Jericho Tpke + Emerson Ave,,40.729591,-73.699876,,,,,,
1966,1643,Jericho Tpke + Willis Ave.,,40.729987,-73.697839,,,,,,
1967,1642,Jericho Tpke Opp Lindeen Ave (BANK),,40.730144,-73.697053,,,,,,
1968,1666,Jericho Tpke + N. 2nd St,,40.731129,-73.692229,,,,,,
1969,1667,Jericho Tpke + McKee St.,,40.730329,-73.696005,,,,,,
1970,1668,Jericho Tpke + Hillside Blvd,,40.731498,-73.690335,,,,,,
1971,1665,Jericho Tpke + Lakeville Rd.,,40.732288,-73.686726,,,,,,
1972,1647,Jericho Tpke + Ingraham La.,,40.73306,-73.683176,,,,,,
1973,1650,Jericho Tpke + Leonard Blvd.,,40.735432,-73.674833,,,,,,
1974,1656,Jericho Tpke + Old Stewart Ave.,,40.738362,-73.668715,,,,,,
1975,1672,Jericho Tpke + Central Ave.,,40.739446,-73.666518,,,,,,
1976,1622,Jericho Tpke + Marcus Ave.,,40.742338,-73.660721,,,,,,
1978,1612,Jericho Tpke + White Rd,,40.744948,-73.654313,,,,,,
1980,14,90 Merrick Ave at Ballfields Souths,,40.720229,-73.575938,,,,,,
1981,LYRR0,Langdon Pl + Broadway Lynbrook LIR,,40.656152,-73.673288,,,,,,
1983,2446,Nevada Dr & Marcus Ave,,40.758317,-73.696852,,,,,,
1986,6145,Hempstead Ave + Noble St,,40.659781,-73.671097,,,,,,
1988,1118,Hempstead Ave + Central Ave.,,40.665121,-73.671011,,,,,,
1990,1124,Hempstead Ave + Sherman Ave,,40.66189,-73.670857,,,,,,
1992,1122,Hempstead Ave + Smith St,,40.66356,-73.670767,,,,,,
1997,768,Franklin Ave + Sobo Ave,,40.706599,-73.676432,,,,,,
1998,FKLNS,Franklin Ave + Hempstead Tpke,,40.707414,-73.676094,,,,,,
2000,2500,New Hyde Park Rd Opp Tulip Ave,,40.713319,-73.677041,,,,,,
2001,6459,New Hyde Park Rd + Cathedral Ave,,40.71561,-73.677699,,,,,,
2002,2466,New Hyde Park Rd + Chester Ave,,40.719294,-73.679768,,,,,,
2003,2486,New Hyde Park Rd + Plaza Rd,,40.722768,-73.679603,,,,,,
2004,6494,New Hyde Park Rd + Stewart Ave,,40.724699,-73.679265,,,,,,
2005,6496,New Hyde Park Rd + Stratford Ave,,40.727343,-73.679151,,,,,,
2006,2467,New Hyde Park Rd + Fourth Ave,,40.729851,-73.679249,,,,,,
2009,2454,New Hyde Park Rd & Broadway,,40.735797,-73.680974,,,,,,
2010,2485,New Hyde Park Rd  Opp Imperial Ave,,40.738924,-73.682142,,,,,,
2011,2471,New Hyde Park Rd Opp Gilford Ave,,40.740349,-73.682671,,,,,,
2012,2463,New Hyde Park Rd + Sperry Blvd,,40.742425,-73.68341,,,,,,
2013,2487,New Hyde Park Rd + W Maple Dr,,40.74467,-73.68427,,,,,,
2014,NHPKS,New Hyde Park Rd + Hillside Ave,,40.747985,-73.685357,,,,,,
2015,2464,New Hyde Park Rd + Evans St,,40.750641,-73.686294,,,,,,
2016,2483,New Hyde Park Rd + Lawrence St,,40.752191,-73.686872,,,,,,
2017,6398,Union Tpke + New Hyde Park Rd,,40.754908,-73.687917,,,,,,
2019,3395,Union Tpke @LakeSuccess Center West,,40.753485,-73.697145,,,,,,
2021,1793,Union Tpke & Lakeville Rd,,40.752513,-73.701278,,,,,,
2022,1789,Lakeville Rd + Hewlett St,,40.75297,-73.70237,,,,,,
2023,1790,Lakeville Rd + LI Jewish Hospital,,40.755691,-73.704156,,,,,,
2024,1791,Lakeville Rd&Marcus Av(400-410-420),,40.758726,-73.704369,,,,,,
2027,1941,Marcus Ave@ Bldg # 2800(Pro Health),,40.757828,-73.693694,,,,,,
2028,2474,New Hyde Park Rd Opp Holiday Gate,,40.759179,-73.688835,,,,,,
2030,2479,New Hyde Park Rd Opp Suburban Gate,,40.76255,-73.689541,,,,,,
2031,492,Community Dr Opp #400,,40.771456,-73.70346,,,,,,
2033,6491,Community Dr Opp Pond Hill Rd,,40.782651,-73.70392,,,,,,
2034,484,Community Dr + Northern Blvd,,40.787026,-73.70551,,,,,,
2035,6672,Northern Blvd + Schenck Ave,,40.785385,-73.707905,,,,,,
2036,2663,Middle Neck Rd & Darley Rd,,40.784179,-73.720688,,,,,,
2038,FKLNN,New Hyde Park Rd + Hempstead Tpke,,40.707459,-73.676011,,,,,,
2040,NHPJN,New Hyde Park Rd + Jericho Tpke,,40.733553,-73.67997,,,,,,
2041,753,Franklin Ave + Mosefan St,,40.705694,-73.677031,,,,,,
2042,2210,Middle Neck Rd + Susquehanna Ave,,40.784093,-73.720221,,,,,,
2045,2681,Northern Blvd + Susquehanna Ave,,40.784243,-73.712098,,,,,,
2049,710,New Hyde Park Rd & Maple Dr,,40.744841,-73.684117,,,,,,
2053,485,Community Dr + Community Dr. E.,,40.784086,-73.70439,,,,,,
2060,483,Community Dr + #400,,40.77102,-73.703312,,,,,,
2061,723,Franklin Ave + Palermo Ct,,40.688253,-73.686173,,,,,,
2063,725,Franklin Ave + Woodcliff Dr,,40.685729,-73.68574,,,,,,
2064,2480,New Hyde Park Rd @LIE S. Service Rd,,40.768016,-73.690867,,,,,,
2068,2475,New Hyde Park Rd + Holiday Gate,,40.759752,-73.688698,,,,,,
2069,712,New Hyde Park Rd & Suburban Gate,,40.762597,-73.689291,,,,,,
2071,2506,Marcus Ave  @ #1111(MarcusBldg East,,40.75765,-73.693572,,,,,,
2074,1940,Marcus Ave @ Bldg # 1999,,40.75674,-73.690588,,,,,,
2075,VSWH1,Franklin Av + Peterhoff St (Wheeler,,40.676843,-73.683018,,,,,,
2080,1937,Marcus Ave @ #1111(Marcus Bldg West,,40.758655,-73.698599,,,,,,
2083,1792,Lakeville Rd + Marcus Ave,,40.759122,-73.703896,,,,,,
2089,1788,Lakeville Rd Opp Hewlett St,,40.75392,-73.703324,,,,,,
2091,3396,Lakeville Rd & Union Tpke,,40.752715,-73.70171,,,,,,
2093,3402,UnionTpke Opp LakeSuccessShopCenter,,40.75455,-73.690934,,,,,,
2095,3400,Union Tpke @ #1111(Marcus Bldg),,40.753547,-73.698662,,,,,,
2098,2484,New Hyde Park Rd + Lawrence St,,40.751987,-73.686571,,,,,,
2099,1110,Hempstead Ave + Blake Ave,,40.658226,-73.671271,,,,,,
2100,2465,New Hyde Park Rd Opp Evans Ave,,40.750606,-73.686054,,,,,,
2101,NHPKN,New Hyde Park Rd + Hillside Ave,,40.74837,-73.68529,,,,,,
2103,2491,New Hyde Park Rd & Dallas Ave,,40.742302,-73.683146,,,,,,
2104,2469,New Hyde Park Rd & Highland Ave,,40.739638,-73.682173,,,,,,
2105,2477,New Hyde Park Rd + Lincoln Ave,,40.737642,-73.681447,,,,,,
2106,2455,New Hyde Park Rd & Belmont Ave,,40.736359,-73.680968,,,,,,
2107,2450,New Hyde Park Rd & Plaza Ave,,40.73186,-73.679355,,,,,,
2108,2452,New Hyde Park Rd. Opp  4th Ave,,40.729799,-73.679034,,,,,,
2109,2461,New Hyde Park Rd. & Manor Rd,,40.723243,-73.679429,,,,,,
2110,2457,New Hyde Park Rd. & Fairmount Blve,,40.719134,-73.679563,,,,,,
2112,703,Middle Neck Rd & Hill Park Ave,,40.785457,-73.723379,,,,,,
2130,1934,Marcus Av@ Bldg #2000 (Astoria Fed),,40.759074,-73.700073,,,,,,
2132,1794,Lakeville Rd at LI Jewish Hospital,,40.755637,-73.704275,,,,,,
2136,6709,Oak St + Locust St,,40.726661,-73.608733,,,,,,
2137,2707,Oak St Opp Brook St,,40.728615,-73.608943,,,,,,
2143,JYCT2,Jericho Tpke + Jay Ct,,40.756042,-73.622517,,,,,,
2145,RSRDN,Roslyn Rd + E Williston Ave,,40.758286,-73.634674,,,,,,
2146,3035,Roslyn Rd + Fairview Ave,,40.761033,-73.635132,,,,,,
2147,3037,Roslyn Rd + Hewlett Dr,,40.763246,-73.635489,,,,,,
2148,3048,Roslyn Rd + Robins Dr,,40.766287,-73.636082,,,,,,
2149,3025,Roslyn Rd + Barnyard Lane,,40.767732,-73.636479,,,,,,
2150,3039,Roslyn Rd + IU Willets Rd,,40.771722,-73.636568,,,,,,
2151,3052,Roslyn Rd Opp Strawberry Lane,,40.773636,-73.636133,,,,,,
2152,3029,Roslyn Rd + Club Dr,,40.775584,-73.63595,,,,,,
2153,6051,Roslyn Rd + Morry La,,40.778179,-73.637984,,,,,,
2154,3043,Roslyn Rd OPP Parkside Dr(NS PKWY),,40.78203,-73.639098,,,,,,
2155,6047,Roslyn Rd + Powerhouse Rd,,40.785308,-73.639048,,,,,,
2156,4033,Roslyn Rd + Donald St,,40.787884,-73.639816,,,,,,
2157,1811,Lincoln Ave + Roslyn Rd,,40.791985,-73.641041,,,,,,
2159,8023,Roslyn Rd opp Locust St,,40.793413,-73.642681,,,,,,
2160,1071,Harbor Hill Rd + Entrance Rd,,40.794533,-73.637399,,,,,,
2161,1072,Harbor Hill Rd + Magnolia La,,40.794972,-73.632325,,,,,,
2162,1069,Harbor Hill Rd + Crescent La,,40.794666,-73.628091,,,,,,
2163,6076,Harbor Hill Rd Opp Short St,,40.794571,-73.625939,,,,,,
2164,1074,Harbor Hill Rd Opp Maple Ct,,40.794862,-73.623409,,,,,,
2165,916,Glen Cove Rd + Harbor Hill Rd,,40.796412,-73.622481,,,,,,
2166,930,Glen Cove Rd + Tally Rd S,,40.800381,-73.623417,,,,,,
2167,927,Glen Cove Rd Opp Nob Hill Gate,,40.802063,-73.624294,,,,,,
2168,922,Glen Cove Rd + Lakeville Ct,,40.805288,-73.625617,,,,,,
2169,928,Glen Cove Rd + Parp Dr.(School Ent),,40.806802,-73.626374,,,,,,
2171,923,Glen Cove Rd + Locust St,,40.81192,-73.627788,,,,,,
2172,912,Glen Cove Rd + Cedar St,,40.814132,-73.626699,,,,,,
2173,910,Back Rd & Glen Cove Rd,,40.816984,-73.626034,,,,,,
2174,908,Glen Cove Ave Opp Willow Pl,,40.822749,-73.626654,,,,,,
2175,898,Glen Cove Ave + Glenns Pl,,40.825834,-73.62751,,,,,,
2176,895,Glen Cove Ave + Glen Ave,,40.828482,-73.628326,,,,,,
2178,901,Glen Cove Ave + Polly La,,40.834798,-73.630925,,,,,,
2179,893,Glen Cove Ave + Cross St,,40.837564,-73.632926,,,,,,
2180,900,Glen Cove Ave + Plymouth Dr N,,40.840985,-73.634372,,,,,,
2181,890,Glen Cove Ave + Central Dr,,40.844632,-73.63533,,,,,,
2182,907,Glen Cove Ave + Valentine Ave,,40.84907,-73.635351,,,,,,
2183,3178,Sea Cliff Ave + Pearl St,,40.850416,-73.634265,,,,,,
2184,3176,Sea Cliff Ave + Emerald Dr,,40.850837,-73.630765,,,,,,
2185,6181,Sea Cliff Ave at Sea Cliff LIRR Sta,,40.851635,-73.625487,,,,,,
2187,384,Cedar Swamp Rd + Fourth St,,40.853537,-73.61912,,,,,,
2188,383,Cedar Swamp Rd + First St,,40.85617,-73.619433,,,,,,
2189,941,Glen St + Glen St LIRR Station,,40.858594,-73.620331,,,,,,
2190,943,Glen St + Pearsall Ave,,40.861189,-73.62245,,,,,,
2191,945,Glen St + Town Path,,40.862904,-73.624046,,,,,,
2193,944,Glen St + Robert H Davis Park,,40.862522,-73.623659,,,,,,
2194,3866,Roslyn Rd + Church St,,40.790254,-73.64076,,,,,,
2195,942,Glen St + Hendrick St,,40.861099,-73.62264,,,,,,
2196,385,Cedar Swamp Rd + Grove St,,40.856177,-73.619685,,,,,,
2197,3042,Roslyn Rd + Northern State Parkway,,40.781582,-73.639428,,,,,,
2198,386,Cedar Swamp Rd + Sea Cliff Ave,,40.852635,-73.619207,,,,,,
2200,3180,Sea Cliff Ave @ #36 Thomson Corp,,40.851856,-73.622787,,,,,,
2202,3051,Roslyn Rd + Strawberry La,,40.773554,-73.636431,,,,,,
2204,3179,Sea Cliff Ave at Center St,,40.851016,-73.630767,,,,,,
2205,3036,Roslyn Rd + Heathcote Dr,,40.768818,-73.637004,,,,,,
2206,3177,Sea Cliff Ave + Pearl Ave,,40.850594,-73.634302,,,,,,
2207,896,Glen Cove Ave + Glen Ave,,40.848997,-73.635613,,,,,,
2208,3026,Roslyn Rd + Bengeyfield Dr,,40.765554,-73.63623,,,,,,
2209,899,Glen Cove Ave + Lafayette Ave,,40.846022,-73.635822,,,,,,
2210,3032,Roslyn Rd + Derby St,,40.763111,-73.635608,,,,,,
2211,894,Glen Cove Ave + Downing Ave,,40.841482,-73.634903,,,,,,
2212,3031,Roslyn Rd + Concord St,,40.761094,-73.63542,,,,,,
2213,RSRDS,Roslyn Rd + Hillside Ave,,40.758481,-73.634939,,,,,,
2215,903,Glen Cove Ave + Scudders La,,40.828445,-73.628541,,,,,,
2216,909,Glen Cove Ave + Willow Pl,,40.822659,-73.62688,,,,,,
2219,915,Back Rd & Glen Cove Rd,,40.816919,-73.6265,,,,,,
2220,917,Glen Cove Rd + Hicks Pl,,40.811041,-73.6284,,,,,,
2221,913,Glen Cove Rd + Edgewood La,,40.806489,-73.626454,,,,,,
2222,926,Glen Cove Rd + Midwood Cross,,40.805055,-73.62577,,,,,,
2224,914,Glen Cove Rd + Elm Dr,,40.800638,-73.623754,,,,,,
2225,1073,Harbor Hill Rd + Maple Ct,,40.795004,-73.62359,,,,,,
2227,1075,Harbor Hill Rd + National Guard Sta,,40.79492,-73.629038,,,,,,
2229,1068,Harbor Hill Rd + Chestnut Dr,,40.795119,-73.633174,,,,,,
2230,1070,Harbor Hill Rd Opp Entrance Rd,,40.794703,-73.637364,,,,,,
2233,480,Commercial Ave Opp NICE Bus,,40.730272,-73.606464,,,,,,
2234,2708,Oak St + Brook St,,40.728648,-73.609504,,,,,,
2235,WBOS2,Oak St + Westbury Blvd,,40.723011,-73.60662,,,,,,
2238,1897,Main St at entrance to Roslyn Park,,40.797013,-73.648657,,,,,,
2248,1869,Main St Opp East Broadway,,40.794669,-73.646243,,,,,,
2249,LY5C2,Broadway + Merrick Rd Five Corners,,40.656921,-73.672156,,,,,,
2252,1112,Hempstead Ave + Chestnut St.,,40.698232,-73.652439,,,,,,
2253,1141,Hempstead Ave + Elm St.,,40.693259,-73.657041,,,,,,
2254,1148,Hempstead Ave + Maple St.,,40.691673,-73.657931,,,,,,
2255,1167,Hempstead Ave + Oakford St.,,40.690035,-73.65857,,,,,,
2256,1150,Hempstead Ave + Eagle Ave.,,40.687834,-73.659418,,,,,,
2257,1142,Hempstead Ave + Myrna Dr.,,40.685842,-73.662451,,,,,,
2258,1126,Hempstead Ave + Roosevelt Blvd.,,40.696992,-73.653846,,,,,,
2259,1136,Hempstead Ave + Johnson Ave.,,40.672582,-73.670172,,,,,,
2260,1147,Hempstead Ave Opp Oakford St,,40.690034,-73.658797,,,,,,
2262,1127,Hempstead Ave + Arlington Ave.,,40.678019,-73.667236,,,,,,
2263,6122,Hempstead Ave + Euclid Ave.,,40.686676,-73.661863,,,,,,
2264,1107,Hempstead Ave + Atlas Ct.,,40.680486,-73.663731,,,,,,
2266,1115,Hempstead Ave + Wicks La.,,40.669911,-73.670299,,,,,,
2267,1149,Hempstead Ave + Franklin Ave.,,40.666031,-73.671128,,,,,,
2268,6166,Hempstead Ave Opp Wicks La,,40.669838,-73.670512,,,,,,
2269,1132,Hempstead Ave + Franklin Ave,,40.66636,-73.67131,,,,,,
2270,1116,Hempstead Ave + Duncan Ave.,,40.663159,-73.67056,,,,,,
2271,1156,Hempstead Ave + Davison Ave.,,40.664534,-73.67067,,,,,,
2272,1154,Hempstead Ave Opp Noble St.,,40.659684,-73.670893,,,,,,
2273,1109,Hempstead Ave Opp Blake Ave,,40.65813,-73.671055,,,,,,
2275,260,Broadway + Oakland Ave.,,40.653185,-73.678134,,,,,,
2276,6267,Broadway + Scranton Ave,,40.652398,-73.679819,,,,,,
2277,210,Broadway + Sunset Ave.,,40.650813,-73.681972,,,,,,
2278,223,Broadway + Yale Ave.,,40.643419,-73.695366,,,,,,
2279,211,Broadway + Starks Pl.,,40.64992,-73.683453,,,,,,
2280,6265,Broadway + Rockaway Ave.,,40.647093,-73.690219,,,,,,
2281,264,Broadway + E. Rockaway Rd.,,40.641456,-73.697908,,,,,,
2282,274,Broadway + Stevenson Rd,,40.645339,-73.692323,,,,,,
2283,FRWM2,Central Ave + Mott Ave,,40.604237,-73.752829,,,,,,
2286,221,Broadway + Everit Ave.,,40.640224,-73.699337,,,,,,
2287,6224,Broadway  & Everit Ave,,40.640465,-73.699399,,,,,,
2291,3588,West Broadway Opp Mill Rd.,,40.63882,-73.70266,,,,,,
2292,3590,West Broadway + Franklin Pl,,40.635528,-73.710671,,,,,,
2294,3597,West Broadway + Woodmere Blvd,,40.633605,-73.714083,,,,,,
2297,3591,West Broadway + Narrow La.,,40.632335,-73.715809,,,,,,
2298,3587,West Broadway + Huntley Rd.,,40.630378,-73.717516,,,,,,
2299,3586,West Broadway + Pearsall Pl.,,40.628973,-73.7193,,,,,,
2300,3596,West Broadway + Oakwood Ave,,40.626791,-73.72408,,,,,,
2301,389,W Broadway & Cedarhurst Ave,,40.626706,-73.727512,,,,,,
2303,432,Central Ave + Spruce St,,40.620767,-73.724988,,,,,,
2305,6429,Central Ave + Rockaway Tpke,,40.617211,-73.730955,,,,,,
2306,425,Central Ave Opp Public School #l,,40.615969,-73.732502,,,,,,
2308,437,Central Ave + Sutton Place,,40.612316,-73.739528,,,,,,
2310,4391,Central Ave + Lord Ave.,,40.611494,-73.742283,,,,,,
2311,430,Central Ave + Lord Ave.,,40.611237,-73.742018,,,,,,
2312,391,Central Ave + B12th St,,40.608718,-73.74765,,,,,,
2313,415,Central Ave + Neilson St.,,40.607143,-73.749443,,,,,,
2318,FRWC32,Seagirt Blvd + Crest Rd,,40.595521,-73.757111,,,,,,
2320,2898,B 20thSt Opp Brookhaven Ave HOSPITAL,,40.599541,-73.754156,,,,,,
2321,187,B 20th St + New Haven Ave.,,40.600837,-73.753838,,,,,,
2322,186,B 20th St + Cornaga Ave,,40.602367,-73.753462,,,,,,
2323,3820,Mott Ave + Scott A Gadell Pl,,40.602985,-73.750407,,,,,,
2324,FRWM3,Central Ave + Mott Ave,,40.604694,-73.75262,,,,,,
2326,392,Central Ave + Virginia St.,,40.610143,-73.74539,,,,,,
2327,436,Central Ave Opp Sutton Pl,,40.6126,-73.739698,,,,,,
2328,423,Central Ave + Public School,,40.616236,-73.732589,,,,,,
2330,393,Central Ave + Lawrence Ave.,,40.614087,-73.736271,,,,,,
2334,3460,W Broadway + Barnard Ave.,,40.62717,-73.723488,,,,,,
2335,3459,W Broadway + Derby Rd.,,40.627885,-73.722006,,,,,,
2336,3453,W Broadway + Grant Ave.,,40.629006,-73.719718,,,,,,
2337,1164,Hempstead Ave + Broad St.,,40.703161,-73.641762,,,,,,
2338,3457,W Broadway + Howard Ave.,,40.630214,-73.717919,,,,,,
2339,3461,W Broadway + Woodmere Blvd,,40.633828,-73.714026,,,,,,
2341,3452,W Broadway Opp Franklin Place,,40.635715,-73.710721,,,,,,
2342,3458,W Broadway + Lewis Ave.,,40.632611,-73.715872,,,,,,
2343,3451,W Broadway + Franklin Ave,,40.638349,-73.705135,,,,,,
2344,3456,W Broadway + Felter Ave.,,40.636983,-73.707933,,,,,,
2348,275,Broadway + Stevenson Rd.,,40.645526,-73.69242,,,,,,
2349,269,Broadway + Erick Ave.,,40.642264,-73.697225,,,,,,
2350,266,Broadway + Avalon Rd.,,40.643425,-73.695783,,,,,,
2351,271,Broadway + Catalpa Ave.,,40.649258,-73.685234,,,,,,
2352,280,Broadway + Everett St.,,40.650045,-73.683574,,,,,,
2353,256,Broadway + Calvin St.,,40.65092,-73.68214,,,,,,
2354,220,Broadway + Olive Place,,40.653427,-73.678053,,,,,,
2355,1135,Hempstead Ave + Rider Ave,,40.671919,-73.670427,,,,,,
2356,1159,Hempstead Ave + Broadway/Nottingham,,40.675272,-73.669712,,,,,,
2357,1105,Hempstead Ave + Cornwell Ave.,,40.684545,-73.662903,,,,,,
2358,1108,Hempstead Ave + Malverne Ave.,,40.677963,-73.667593,,,,,,
2359,1140,Hempstead Ave + McKinley St.,,40.694874,-73.65565,,,,,,
2361,1119,Hempstead Ave + Wilson St.,,40.699417,-73.651389,,,,,,
2362,1158,Hempstead Ave + Poplar St.,,40.700339,-73.649537,,,,,,
2363,1170,Hempstead Ave + Maplewood St.,,40.701307,-73.647244,,,,,,
2364,1169,Hempstead Ave + Westminster Rd.,,40.70241,-73.643437,,,,,,
2366,226,Broadway + Franklin Ave,,40.636818,-73.702852,,,,,,
2367,6281,Broadway Opp Trinity Pl,,40.634888,-73.704488,,,,,,
2368,229,Broadway + Conklin Ave.,,40.632205,-73.706616,,,,,,
2370,419,Central Ave + Northwood La.,,40.629297,-73.713379,,,,,,
2372,6422,Central Ave + Prospect Ave,,40.625783,-73.718382,,,,,,
2373,410,Central Ave + Locust Ave.,,40.624037,-73.720472,,,,,,
2374,6407,Central Ave + Maple Ave,,40.623422,-73.721717,,,,,,
2375,405,Central Ave + Spruce St.,,40.621062,-73.725004,,,,,,
2376,420,Central Ave + N. Wood Ln,,40.629582,-73.71343,,,,,,
2381,232,Broadway + Hartwell Pl.,,40.631925,-73.707209,,,,,,
2383,3492,W Park Ave + National Blvd,,40.588688,-73.667203,,,,,,
2384,6492,W Park St + Magnolia Blvd,,40.588252,-73.670069,,,,,,
2385,6489,W Park St + Laurelton Blvd,,40.588234,-73.672941,,,,,,
2386,6488,W Park St + Lafayette Blvd,,40.588217,-73.675836,,,,,,
2387,3494,W Park Ave + Washington Blvd,,40.588648,-73.67839,,,,,,
2388,3490,W Park Ave + Lindell Blvd,,40.588631,-73.681238,,,,,,
2389,1005,Grand Blvd + W Walnut St,,40.587532,-73.684288,,,,,,
2390,1002,Grand Blvd + W Beech St,,40.58619,-73.684619,,,,,,
2391,3445,W Beech St + New York Ave,,40.586122,-73.687061,,,,,,
2393,6435,W Beech St + Arizona Ave,,40.585956,-73.689335,,,,,,
2395,6450,W Beech St + Wyoming Ave,,40.585978,-73.691646,,,,,,
2397,6448,W Beech St + Tennessee Ave,,40.585972,-73.69397,,,,,,
2399,6442,W Beech St + Maryland Ave,,40.585994,-73.696245,,,,,,
2401,6438,W Beech St + Georgia Ave,,40.58598,-73.698509,,,,,,
2402,3440,W Beech St + Illinois Ave,,40.586084,-73.70044,,,,,,
2404,6128,Beech St + Clayton Ave,,40.586778,-73.706548,,,,,,
2405,6132,Beech St Opp Scott Dr,,40.586756,-73.711338,,,,,,
2406,131,Beech St + Richard St,,40.587166,-73.715787,,,,,,
2407,2882,Park St + Vernon Ave,,40.588248,-73.719635,,,,,,
2408,6881,Park St + Suffolk Blvd,,40.588466,-73.721854,,,,,,
2409,6880,Park St + Putnam Blvd,,40.588637,-73.724442,,,,,,
2410,6879,Park St + Montgomery Blvd,,40.588784,-73.726564,,,,,,
2411,6878,Park St + Jefferson Blvd,,40.588956,-73.728973,,,,,,
2412,6877,Park St + Genesee Blvd,,40.58918,-73.731692,,,,,,
2413,6876,Park St + Dutchess Blvd,,40.589326,-73.733862,,,,,,
2415,3184,Seagirt Blvd + B 9th St,,40.596661,-73.744017,,,,,,
2416,74,B 19th St + Seagirt Blvd,,40.595691,-73.75305,,,,,,
2419,516,Cornaga Ave + B 19th St,,40.602429,-73.752188,,,,,,
2427,3839,Seagirt Blvd + B 19th St,,40.595047,-73.753185,,,,,,
2428,3186,Seagirt Blvd + B 17th St,,40.595042,-73.751267,,,,,,
2429,3183,Seagirt Blvd + B 9th St,,40.596375,-73.744156,,,,,,
2431,2883,Park St + Vernon Blvd,,40.587997,-73.719776,,,,,,
2432,130,Beech St Opp Richard St,,40.587094,-73.715869,,,,,,
2433,133,Beech St + Buffalo Ave,,40.58601,-73.703752,,,,,,
2434,129,W Beech St + Nevada Ave,,40.586096,-73.701382,,,,,,
2435,3436,W Beech St + Connecticut Ave,,40.586001,-73.699379,,,,,,
2436,3444,W Beech St + New York Ave,,40.585987,-73.687143,,,,,,
2437,3439,W Beech St + Grand Blvd,,40.586003,-73.684534,,,,,,
2438,1003,Grand Blvd + W Olive St,,40.586855,-73.683947,,,,,,
2439,1004,Grand Blvd + W Park St,,40.588096,-73.683996,,,,,,
2440,3849,W Park Ave + Lindell Blvd,,40.588182,-73.681662,,,,,,
2441,3493,W Park Ave + Washington Blvd,,40.588191,-73.678707,,,,,,
2455,2931,Post Ave + Old Country Rd,,40.747733,-73.587493,,,,,,
2457,6926,Post Ave + 5th Ave,,40.750785,-73.587689,,,,,,
2458,2941,Privado Rd + Merrick Ave,,40.745616,-73.587604,,,,,,
2459,6933,Post Av Opp Railroad Av Westb. LIRR,,40.752964,-73.587722,,,,,,
2461,2932,Post Ave + Maple Ave,,40.756035,-73.587919,,,,,,
2462,2936,Post Ave + Winthrop St,,40.757822,-73.587721,,,,,,
2463,2935,Post Ave Opp  Wilson Ave,,40.760412,-73.587542,,,,,,
2467,2928,Post Ave + Castle Ave,,40.761807,-73.58715,,,,,,
2469,2927,Post Ave + Belmont Ave,,40.758589,-73.587859,,,,,,
2470,3192,Selfridge Ave at Theatre  - NCC,,40.733217,-73.596882,,,,,,
2471,2930,Post Ave + Myrtle Ave,,40.747883,-73.587662,,,,,,
2474,2940,Privado Rd + Merrick Ave,,40.745894,-73.587261,,,,,,
2477,3017,Roosevelt Field Exit + Stewart Ave,,40.731531,-73.612923,,,,,,
2480,3354,Sunrise Hwy + Atlantic Ave,,40.654794,-73.671974,,,,,,
2481,52,Atlantic Ave + Raymond Ave,,40.65216,-73.670383,,,,,,
2482,41,Atlantic Ave + Harrison Ave,,40.650752,-73.668531,,,,,,
2483,31,Atlantic Ave + Carman Ave,,40.648997,-73.666307,,,,,,
2484,34,Atlantic Ave + Columbia Ave,,40.645914,-73.665177,,,,,,
2485,45,Atlantic Ave + Maxwell St,,40.643438,-73.665687,,,,,,
2486,1865,Main St + Baisely Ave,,40.641289,-73.665199,,,,,,
2487,EROCE,Atlantic Ave + Denton Ave,,40.640753,-73.66226,,,,,,
2488,50,Atlantic Ave + Ocean Ave ERock LIRR,,40.6407,-73.659136,,,,,,
2489,43,Atlantic Ave + Lawson Blvd,,40.640749,-73.655416,,,,,,
2490,64,Atlantic Ave + Waverly Ave,,40.640659,-73.653984,,,,,,
2491,60,Atlantic Ave + Terrell Ave,,40.640652,-73.649012,,,,,,
2492,28,Atlantic Ave + Bayview Ct,,40.639954,-73.64637,,,,,,
2493,1808,Lincoln Ave + Atlantic Ave,,40.639447,-73.642811,,,,,,
2495,553,Davison Ave + Oceanside Rd,,40.641935,-73.634097,,,,,,
2496,300,Brower Ave Opp Oceanside Pkwy,,40.640145,-73.631682,,,,,,
2498,293,Brower Ave + Benjamin Rd,,40.638137,-73.626749,,,,,,
